{"EssentialInfo":{"Location":{"name":"台北市","CenterName":"台北市公車動態資訊中心"},"UpdateTime":"2024/09/08 06:50:46","CoordinateSystem":"WGS84"},"BusInfo":[{"id":6017,"nid":"1067600660","name":"麟光站","address":"和平東路3段510號對面(向西)","lon":"121.560787","lat":"25.015917","version":6},{"id":6015,"nid":"1105700060","name":"黎忠市場","address":"和平東路三段411號(向西)","lon":"121.557953","lat":"25.019475","version":3},{"id":2160,"nid":"1105600060","name":"富陽街口","address":"和平東路三段329號同向(向西)","lon":"121.55616","lat":"25.021127","version":3},{"id":2147,"nid":"1067400060","name":"捷運六張犁站(和平)","address":"和平東路三段239號同向(向西)","lon":"121.554225","lat":"25.022926","version":8},{"id":2251,"nid":"1067500160","name":"和平安和路口","address":"台北市大安區和平東路三段103號(向西)","lon":"121.550915062346","lat":"25.0245319230801","version":4},{"id":13101,"nid":"1067500000","name":"成功國宅","address":"敦化南路二段113號(向北)","lon":"121.549033716258","lat":"25.0275992243505","version":3},{"id":2186,"nid":"1068200000","name":"大安國中","address":"敦化南路二段93號同向(向北)","lon":"121.5489397","lat":"25.03061531","version":2},{"id":13102,"nid":"1068100100","name":"信義敦化路口","address":"敦化南路二段37巷旁(向北)","lon":"121.54906","lat":"25.03196","version":4},{"id":4170,"nid":"1068900100","name":"仁愛國中","address":"敦化南路一段277號(向北)","lon":"121.5490897913242","lat":"25.035951071734246","version":3},{"id":2211,"nid":"1068900400","name":"安和敦化路口","address":"敦化南路一段277號同向(向北)","lon":"121.5489579","lat":"25.03976179","version":2},{"id":2259,"nid":"1069000200","name":"捷運忠孝敦化站","address":"敦化南路一段173號同向(向北)","lon":"121.549174","lat":"25.0430127","version":4},{"id":13104,"nid":"1055700000","name":"市民大道口","address":"敦化南路一段57號(向北)","lon":"121.5491941","lat":"25.04575795","version":2},{"id":1510,"nid":"1054900200","name":"市立體育場","address":"敦化北路5號(向北)","lon":"121.549204","lat":"25.048949","version":6},{"id":13105,"nid":"1055000000","name":"臺北小巨蛋","address":"敦化北路133號(向北)","lon":"121.549330","lat":"25.052580","version":10},{"id":1544,"nid":"1050800000","name":"長庚醫院","address":"敦化北路201號同向(向北)","lon":"121.54929","lat":"25.05656","version":2},{"id":1580,"nid":"1057200100","name":"富錦街口","address":"敦化北路329號同向(向北)","lon":"121.55006","lat":"25.0596","version":2},{"id":60134,"nid":"1054100060","name":"民權敦化路口","address":"民權東路四段上近敦化北路同向(向西)","lon":"121.5482873","lat":"25.06203573","version":4},{"id":1000329,"nid":"1054200260","name":"民權復興路口","address":"民權東路三段(向西)","lon":"121.5446524","lat":"25.06222037","version":3},{"id":1000184,"nid":"1047600460","name":"民權龍江路口","address":"民權東路三段(向西)","lon":"121.541275218891","lat":"25.0623959365736","version":4},{"id":4081,"nid":"1047700060","name":"民權建國路口","address":"民權東路二段上近建國北路二段向西(向西)","lon":"121.53746","lat":"25.06248317","version":2},{"id":1240,"nid":"1048300060","name":"民權松江路口","address":"民權東路二段上近松江路同向(向西)","lon":"121.5334388","lat":"25.06252486","version":4},{"id":1000162,"nid":"1047000060","name":"民權吉林路口","address":"民權東路二段(向西)","lon":"121.529161500974","lat":"25.0625939969562","version":5},{"id":6663,"nid":"1047100000","name":"中山國小(新生)","address":"新生北路三段15號(向北)","lon":"121.5279527","lat":"25.06376514","version":2},{"id":1387,"nid":"1047100600","name":"稻江護校","address":"新生北路三段61號同向(向北)","lon":"121.528089","lat":"25.066076","version":3},{"id":50629,"nid":"1046100300","name":"劍潭","address":"中山北路四段67號(向北)","lon":"121.524381872313","lat":"25.0805889011559","version":3},{"id":50630,"nid":"1114100700","name":"銘傳大學","address":"中山北路五段260號同向(向北)","lon":"121.52663","lat":"25.08697","version":2},{"id":1218,"nid":"1114100000","name":"台電台北北區營業處","address":"中山北路五段380號同向(向北)","lon":"121.527703","lat":"25.091209","version":3},{"id":576,"nid":"1116300100","name":"士林官邸(中山)","address":"中山北路五段537號同向(向北)","lon":"121.528319753964","lat":"25.0947774592454","version":7},{"id":60140,"nid":"1114100600","name":"福林橋","address":"中山北路五段676號(南側)(向北)","lon":"121.527797","lat":"25.096957","version":5},{"id":719,"nid":"1114800120","name":"忠誠公園","address":"忠誠路一段24號同向(向東)","lon":"121.525683877315","lat":"25.1039067740372","version":9},{"id":3949,"nid":"1114800320","name":"雨農國小","address":"忠誠路一段105號同向(向東)","lon":"121.528640834207","lat":"25.1050501328713","version":3},{"id":963,"nid":"1114800500","name":"蘭雅國中","address":"忠誠路二段25號同向(向北)","lon":"121.53065017432","lat":"25.1095102588294","version":3},{"id":3950,"nid":"1115300300","name":"天母棒球場(忠誠)","address":"忠誠路二段77號同向(向北)","lon":"121.53189","lat":"25.11328","version":5},{"id":789,"nid":"1115300700","name":"市立臺北特教學校","address":"忠誠路二段202號對面候車亭(向北)","lon":"121.534692981633","lat":"25.1173302889076","version":5},{"id":50647,"nid":"1115300060","name":"三玉宮","address":"天母東路1之7號同向(向西)","lon":"121.5311071","lat":"25.11823857","version":2},{"id":916,"nid":"1115700460","name":"齊賢華廈","address":"天母西路71號同向(向西)","lon":"121.52525","lat":"25.11857","version":2},{"id":55004,"nid":"1121700361","name":"榮總一","address":"石牌路二段201號同向(向西)(中間)","lon":"121.520551599272","lat":"25.1188249158648","version":4},{"id":271,"nid":"1126700240","name":"保一總隊","address":"立農街二段同向(向南)","lon":"121.51738","lat":"25.11904","version":2},{"id":483,"nid":"1121700220","name":"榮總","address":"石牌路二段201號對向(向東)","lon":"121.51968525315","lat":"25.1185668257628","version":3},{"id":915,"nid":"1115700420","name":"齊賢華廈","address":"天母西路46之3號同向(向東)","lon":"121.5249985","lat":"25.11844386","version":2},{"id":561,"nid":"1115300020","name":"三玉宮","address":"天母東路6號同向(向東)","lon":"121.5308437","lat":"25.118085","version":2},{"id":787,"nid":"1115300740","name":"市立臺北特教學校","address":"忠誠路二段202號同向(向南)","lon":"121.53420057673","lat":"25.117222142683","version":5},{"id":3951,"nid":"1115300340","name":"天母棒球場(忠誠)","address":"忠誠路二段134號同向(向南)","lon":"121.53219798892","lat":"25.1142079240147","version":6},{"id":539,"nid":"1114800540","name":"蘭雅國中","address":"忠誠路二段25號對向(向南)","lon":"121.530332918097","lat":"25.1095348370884","version":7},{"id":3952,"nid":"1114800360","name":"雨農國小","address":"忠誠路一段106號同向(向西)","lon":"121.528560201223","lat":"25.1054396312581","version":3},{"id":718,"nid":"1114800160","name":"忠誠公園","address":"忠誠路一段106號對向(向西)","lon":"121.525920635582","lat":"25.1043342088164","version":7},{"id":897,"nid":"1114100640","name":"福林橋","address":"中山北路五段647號同向(向南)","lon":"121.527411","lat":"25.097079","version":3},{"id":796,"nid":"1116300940","name":"捷運士林站(中山)","address":"中山北路五段495號同向(向南)","lon":"121.5277552","lat":"25.0930123","version":3},{"id":1000264,"nid":"1116300740","name":"台電台北北區營業處","address":"中山北路五段439號對面候車亭(向南)","lon":"121.5273919","lat":"25.09069989","version":2},{"id":913,"nid":"1114100740","name":"銘傳大學","address":"中山北路五段282巷對向(向南)","lon":"121.5268976","lat":"25.08788518","version":2},{"id":803,"nid":"1116301040","name":"捷運劍潭站(中山)","address":"中山北路5段75號捷運劍潭站1號出口前(向南)","lon":"121.525327","lat":"25.085353","version":6},{"id":1000266,"nid":"1046100340","name":"劍潭","address":"中山北路四段67號對面(向南)","lon":"121.524712226022","lat":"25.0817595131148","version":3},{"id":1233,"nid":"1046000240","name":"民族東路口","address":"新生北路三段82之3號同向(向南)","lon":"121.52756","lat":"25.06731","version":2},{"id":1388,"nid":"1047100641","name":"稻江護校","address":"新生北路三段63號旁同向(向南)","lon":"121.5276297","lat":"25.0650407","version":2},{"id":6660,"nid":"1046000040","name":"中山國小(新生)","address":"新生北路三段14號(向南)","lon":"121.52748","lat":"25.06333","version":2},{"id":1000112,"nid":"1046800020","name":"民權吉林路口","address":"民權東路二段(向東)","lon":"121.5300637","lat":"25.06254664","version":4},{"id":1239,"nid":"1046800120","name":"民權松江路口","address":"民權東路二段上近松江路同向(向東)","lon":"121.5328589","lat":"25.0624771","version":4},{"id":1242,"nid":"1048400020","name":"民權建國路口","address":"民權東路二段上近建國北路二段同向(向東)","lon":"121.5364984","lat":"25.06236889","version":2},{"id":1000186,"nid":"1047600420","name":"民權龍江路口","address":"民權東路三段(向東)","lon":"121.540554014847","lat":"25.0623255291835","version":4},{"id":1000326,"nid":"1047600320","name":"民權復興路口","address":"民權東路三段(向東)","lon":"121.5438692","lat":"25.06227185","version":3},{"id":1244,"nid":"1054100020","name":"民權敦化路口","address":"民權東路三段上近敦化北路同向(向東)","lon":"121.54762539917303","lat":"25.062020643130538","version":4},{"id":1000128,"nid":"1054200120","name":"民權東路口","address":"民權東路三段(向東)","lon":"121.5496186","lat":"25.06158785","version":4},{"id":13106,"nid":"1054600040","name":"民生敦化路口","address":"敦化北路上近民生東路三段(向南)","lon":"121.548902","lat":"25.057956","version":4},{"id":1298,"nid":"1054800440","name":"長春敦化路口","address":"敦化北路上近長春路同向(向南)","lon":"121.54883","lat":"25.05458","version":2},{"id":13107,"nid":"1059500040","name":"臺北小巨蛋","address":"敦化北路100號(專用道)(向南)","lon":"121.548768","lat":"25.052139","version":9},{"id":1488,"nid":"1055100040","name":"八德敦化路口","address":"八德路三段上近敦化北路同向(向南)","lon":"121.54874","lat":"25.04864","version":2},{"id":13109,"nid":"1055700240","name":"市民敦化路口","address":"敦化南路一段上近市民大道四段(向南)","lon":"121.548797","lat":"25.04527113","version":4},{"id":2262,"nid":"1069000140","name":"忠孝敦化路口","address":"敦化南路一段上近忠孝東路同向(向南)","lon":"121.5487541","lat":"25.04186596","version":6},{"id":13111,"nid":"1068500140","name":"仁愛敦化路口","address":"敦化南路一段245號(向南)","lon":"121.548697","lat":"25.039043","version":9},{"id":13112,"nid":"1068100140","name":"信義敦化路口","address":"敦化南路一段362號(專用道)(向南)","lon":"121.548726","lat":"25.033775","version":7},{"id":2185,"nid":"1068200040","name":"大安國中","address":"敦化南路二段26號同向(向南)","lon":"121.548486903395","lat":"25.0323779291193","version":4},{"id":2241,"nid":"1068200140","name":"成功國宅","address":"敦化南路二段105號同向(向南)","lon":"121.5484575","lat":"25.0284111","version":2},{"id":13115,"nid":"1055700340","name":"鳳雛公園","address":"敦化南路一段126號(向南)","lon":"121.5486689","lat":"25.02633182","version":2},{"id":2250,"nid":"1067500120","name":"和平安和路口","address":"和平東路三段76號(向東)","lon":"121.550861893498","lat":"25.0242726614044","version":3},{"id":2146,"nid":"1067400020","name":"捷運六張犁站(和平)","address":"和平東路三段170號旁(向東)","lon":"121.553534505165","lat":"25.0232432826612","version":11},{"id":2085,"nid":"1067400120","name":"富陽街口","address":"和平東路三段282號同向(向東)","lon":"121.555910878022","lat":"25.0210340657202","version":3},{"id":2172,"nid":"1067600520","name":"黎忠市場","address":"和平東路三段362號同向(向東)","lon":"121.5578044","lat":"25.01926083","version":2},{"id":2182,"nid":"1067600620","name":"麟光站","address":"和平東路3段557號對面(向東)","lon":"121.561041","lat":"25.015473","version":5},{"id":2157,"nid":"1067600320","name":"捷運麟光站","address":"和平東路三段408號(向東)","lon":"121.55853","lat":"25.01825","version":2},{"id":10001486,"nid":"1128300020","name":"振興公園","address":"天母西路109號對面(向東)","lon":"121.52352","lat":"25.11876","version":2},{"id":3890,"nid":"1115700320","name":"齊福華廈","address":"天母西路18之1號同向(向東)","lon":"121.5275693","lat":"25.11838172","version":2},{"id":4981,"nid":"1115600860","name":"齊福華廈","address":"天母西路33號前(向西)","lon":"121.5276437","lat":"25.11850567","version":3},{"id":922,"nid":"1115500340","name":"德行(中山忠誠路口)","address":"中山北路六段23號同向(向南)","lon":"121.524957","lat":"25.103354","version":3},{"id":2717,"nid":"2205700820","name":"歡仔園","address":"僑中一街150號對向(向東)","lon":"121.4447909","lat":"25.0118181","version":3},{"id":6005,"nid":"2205700420","name":"僑中一街","address":"僑中一街92號對向(向東)","lon":"121.447012","lat":"25.011585","version":4},{"id":4697,"nid":"2205800260","name":"大觀國小","address":"大觀路一段31號對面(向西)","lon":"121.449581","lat":"25.008563","version":4},{"id":2652,"nid":"2205800940","name":"國立臺灣藝術大學","address":"大觀路一段55號同向(向南)","lon":"121.4476185","lat":"25.00721049","version":4},{"id":6007,"nid":"2205800440","name":"中山實小","address":"大觀路二段28號(向南)","lon":"121.4462031","lat":"25.00205217","version":4},{"id":6009,"nid":"2205800640","name":"板橋榮家","address":"大觀路二段32號(向南)","lon":"121.44576","lat":"25.00136","version":3},{"id":6010,"nid":"2205800060","name":"力行新村","address":"大觀路二段249號對面(向西)","lon":"121.44335","lat":"24.99931","version":4},{"id":2632,"nid":"2206100720","name":"南雅站","address":"南雅站地標同向(向北)","lon":"121.451620","lat":"24.994319","version":7},{"id":2601,"nid":"2206100320","name":"亞東科技大學","address":"四川路二段57號同向(向東)","lon":"121.45373","lat":"24.995168","version":6},{"id":2702,"nid":"2206302020","name":"豫章工商","address":"四川路一段479號同向(向北)","lon":"121.457306","lat":"24.997381","version":6},{"id":2562,"nid":"2206300120","name":"仁愛新村","address":"四川路一段361號同向(向北)","lon":"121.458394","lat":"24.999752","version":3},{"id":2666,"nid":"2206301820","name":"福星里","address":"四川路一段247號同向(向北)","lon":"121.459860","lat":"25.002648","version":5},{"id":6012,"nid":"2206301300","name":"鄉雲里","address":"四川路一段151號(向北)","lon":"121.459931","lat":"25.004370","version":5},{"id":2636,"nid":"2206400320","name":"後站商圈","address":"板橋區館前東路54號(向東)","lon":"121.461043262981","lat":"25.0072766153747","version":5},{"id":1001063,"nid":"2206400000","name":"介壽公園","address":"實踐路(向北)","lon":"121.4634845","lat":"25.00860074","version":3},{"id":6002,"nid":"2206500220","name":"民權路口","address":"中山路一段144號(向東)","lon":"121.46366","lat":"25.010896","version":4},{"id":2699,"nid":"2204101000","name":"新北市政府(新府路)","address":"新北市政府西側門對面(新府路)(向北)","lon":"121.464544","lat":"25.012043","version":4},{"id":6200,"nid":"2206500820","name":"新北市政府(中山路)","address":"板橋區中山路「路燈編號017547」前(向東)","lon":"121.46755","lat":"25.012690","version":4},{"id":2606,"nid":"2206500020","name":"中山漢生路口","address":"中山路一段214號同向(向北)","lon":"121.470442","lat":"25.014029","version":5},{"id":2594,"nid":"2206300220","name":"西安里","address":"中山路二段20號同向(向北)","lon":"121.4724073","lat":"25.01497569","version":4},{"id":2643,"nid":"2206700520","name":"埔墘國小","address":"中山路二段110號同向(向東北)","lon":"121.475893","lat":"25.016626","version":6},{"id":14231,"nid":"2206700420","name":"埔墘(中山路)","address":"中山路二段230號(向北)","lon":"121.478290","lat":"25.017984","version":9},{"id":2642,"nid":"2206800620","name":"埔墘派出所","address":"中山路二段312號同向(向北)","lon":"121.48066","lat":"25.01945","version":7},{"id":14221,"nid":"2206800420","name":"光復橋","address":"中山路二段418-420號(向北)","lon":"121.483153","lat":"25.021030","version":5},{"id":4629,"nid":"1086400000","name":"西園路二段","address":"西園路二段217號同向(向北)","lon":"121.4941737","lat":"25.02715329","version":2},{"id":4627,"nid":"1085900100","name":"華江高中(西園)","address":"西園路二段137號同向(向北)","lon":"121.496162828269","lat":"25.0295844111411","version":5},{"id":4628,"nid":"1085900000","name":"西園29服飾基地","address":"西園路二段34號對面候車亭(向北)","lon":"121.497718","lat":"25.03244","version":3},{"id":4626,"nid":"1085500000","name":"大理服飾","address":"西園路一段215號同向(向北)","lon":"121.498768","lat":"25.034147","version":4},{"id":1794,"nid":"1085500320","name":"捷運龍山寺站","address":"和平西路三段120號(捷運出口2)(向東)","lon":"121.500164","lat":"25.035143","version":6},{"id":1000975,"nid":"1085200700","name":"龍山寺(康定)","address":"康定路189-199號(向北)","lon":"121.501464019539","lat":"25.0363140633243","version":5},{"id":1785,"nid":"1084900400","name":"祖師廟(康定)","address":"康定路123號北側(暫調康定路99號)(向北)","lon":"121.5019792","lat":"25.03968147","version":3},{"id":1755,"nid":"1084500200","name":"西門國小(臺大醫院北護分院)","address":"康定路46號對面(向北)","lon":"121.502463","lat":"25.042344","version":12},{"id":1780,"nid":"1084300100","name":"峨眉街口(中醫院區)","address":"康定路24號同向(向北)","lon":"121.503074","lat":"25.044994","version":8},{"id":4616,"nid":"1084200420","name":"漢口街","address":"台北市漢口街2段60號前(向東)","lon":"121.505237","lat":"25.045991","version":3},{"id":1001169,"nid":"1084300041","name":"中華路北站","address":"中華路一段92號路側(向南)","lon":"121.508765096201","lat":"25.0445846194834","version":9},{"id":4608,"nid":"1084600340","name":"捷運西門站","address":"中華路一段166號路側(向南)","lon":"121.507887356667","lat":"25.041649236993","version":12},{"id":1975,"nid":"1085000340","name":"小南門","address":"中華路1段202號前桂林路口路側(向南)","lon":"121.506812536211","lat":"25.0380081419194","version":7},{"id":1761,"nid":"1084900160","name":"桂林昆明街口","address":"桂林路45號同向(向西)","lon":"121.5043","lat":"25.0381","version":4},{"id":4615,"nid":"1084800160","name":"桂林路","address":"桂林路105號同向(向西)","lon":"121.500815164828","lat":"25.0384724642396","version":3},{"id":1833,"nid":"1085500540","name":"龍山寺(西園)","address":"西園路一段198號(向南)","lon":"121.499270","lat":"25.036110","version":6},{"id":1738,"nid":"1085500040","name":"大理服飾","address":"西園路一段250號同向(向南)","lon":"121.498448","lat":"25.034146","version":3},{"id":1825,"nid":"1085900040","name":"西園29服飾基地","address":"西園路二段34號前候車亭(向南)","lon":"121.49746","lat":"25.03244","version":2},{"id":1804,"nid":"1085900140","name":"華江高中(西園)","address":"西園路二段168號同向(向南)","lon":"121.495950804601","lat":"25.0296582647227","version":6},{"id":1756,"nid":"1086400040","name":"西園路二段","address":"西園路二段296號(向南)","lon":"121.49323","lat":"25.02657","version":2},{"id":2585,"nid":"2206800460","name":"光復橋","address":"中山路二段481號同向(向西)","lon":"121.483161","lat":"25.021366","version":3},{"id":6195,"nid":"2206800660","name":"埔墘派出所","address":"中山路二段391號同向(向南)","lon":"121.48024","lat":"25.01945","version":6},{"id":14220,"nid":"2206700460","name":"埔墘(中山路)","address":"中山路二段277號(向南)","lon":"121.4780283","lat":"25.01801278","version":8},{"id":14219,"nid":"2206700560","name":"埔墘國小","address":"中山路二段167號(向南)","lon":"121.47594","lat":"25.01679","version":4},{"id":14201,"nid":"2206700360","name":"西安里","address":"中山路二段17號(向南)","lon":"121.47229","lat":"25.015119","version":5},{"id":6198,"nid":"2206500060","name":"中山漢生路口","address":"中山路一段279號(向南)","lon":"121.470005","lat":"25.014023","version":7},{"id":6199,"nid":"2206500760","name":"新北市政府(中山路)","address":"中山路一段166號對向(向西)","lon":"121.46719","lat":"25.012734","version":6},{"id":2673,"nid":"2204100260","name":"新北板橋公車站","address":"縣民大道公車專用月台第三月台(向東)","lon":"121.462610","lat":"25.012769","version":13},{"id":2700,"nid":"2204101040","name":"新北市政府(新府路)","address":"新北市政府西側門外(新府路)(向南)","lon":"121.4643742","lat":"25.0118568","version":2},{"id":14207,"nid":"2206500260","name":"民權路口","address":"中山路一段139號(向西)","lon":"121.46352","lat":"25.011017","version":5},{"id":2611,"nid":"2206300760","name":"板橋外站","address":"中山路一段101號(向西南)","lon":"121.461797","lat":"25.010225","version":6},{"id":2637,"nid":"2206300940","name":"後站商圈","address":"中山路一段7號(向南)","lon":"121.459999","lat":"25.0081","version":5},{"id":6013,"nid":"2206301340","name":"鄉雲里","address":"四川路一段64號(向南)","lon":"121.459568","lat":"25.005426","version":5},{"id":2691,"nid":"2206301861","name":"福星里","address":"四川路一段180號同向(向南)","lon":"121.459747","lat":"25.002721","version":3},{"id":2563,"nid":"2206300160","name":"仁愛新村","address":"四川路一段381號對面(向南)","lon":"121.458052","lat":"24.999454","version":5},{"id":6011,"nid":"2206302060","name":"豫章工商","address":"四川路一段479號對向(向南)","lon":"121.4570296","lat":"24.99736525","version":6},{"id":2602,"nid":"2206300360","name":"亞東科技大學","address":"四川路二段48號同向(向西)","lon":"121.4532287","lat":"24.99527614","version":5},{"id":1000661,"nid":"2206000460","name":"南雅站","address":"四川路二段130巷旁(向南)","lon":"121.450379","lat":"24.993821","version":7},{"id":2648,"nid":"2205800760","name":"浮洲橋","address":"大觀路二段265巷7-6號同向(向西)","lon":"121.44318","lat":"24.99474","version":2},{"id":14505,"nid":"2205800020","name":"力行新村","address":"大觀路二段241號(向東)","lon":"121.443597","lat":"24.999139","version":5},{"id":2626,"nid":"2205800600","name":"板橋榮家","address":"大觀路二段32號對面(向北)","lon":"121.44574","lat":"25.00115","version":2},{"id":14502,"nid":"2205800400","name":"中山實小","address":"大觀路二段63號(向北)","lon":"121.446636","lat":"25.00256772","version":4},{"id":60019,"nid":"2205800900","name":"國立臺灣藝術大學","address":"大觀路一段59號同向(向北)","lon":"121.4476","lat":"25.0062","version":4},{"id":6006,"nid":"2205700100","name":"大觀路一段28巷","address":"大觀街一28巷26號同向(向北)","lon":"121.4499902","lat":"25.00960549","version":5},{"id":2684,"nid":"2205700460","name":"僑中一街","address":"僑中一街92號同向(向西)","lon":"121.4471728","lat":"25.01173762","version":2},{"id":1000431,"nid":"2205700860","name":"歡仔園","address":"僑中一街(向西)","lon":"121.444872","lat":"25.011966","version":3},{"id":1001188,"nid":"2205801100","name":"福安里","address":"大觀路二段391號(向北)","lon":"121.441040333834","lat":"24.9973119983033","version":6},{"id":1165603220,"nid":"2206700060","name":"中山民生路口","address":"新北市板橋區中山路二段97號前(向西)","lon":"121.47433","lat":"25.016073","version":2},{"id":1165603235,"nid":"2206700020","name":"中山民生路口","address":"板橋區中山區二段76號(向東北)","lon":"121.474547","lat":"25.016013","version":6},{"id":1000380,"nid":"2315300300","name":"大茅埔","address":"安康路二段385、385-1號(向北)","lon":"121.4946626","lat":"24.95431753","version":2},{"id":1000381,"nid":"2315301820","name":"康樂新村","address":"安康路二段341巷口(向東北)","lon":"121.496698","lat":"24.955162","version":5},{"id":3983,"nid":"2315400500","name":"仁康醫院","address":"安康路二段323巷口(向北)","lon":"121.499054","lat":"24.956348","version":7},{"id":3982,"nid":"2315401200","name":"薏仁坑","address":"安康路二段299號(向北)","lon":"121.502106","lat":"24.95733611","version":4},{"id":3984,"nid":"2315301320","name":"安康車子路口","address":"安康路二段269號對向(向東)","lon":"121.505929","lat":"24.958027","version":6},{"id":2887,"nid":"2315300620","name":"台北菸廠","address":"新北市新店區安康路二段191號同向(向東)","lon":"121.509284","lat":"24.959017","version":5},{"id":1000401,"nid":"2315400800","name":"浪漫貴族","address":"安康路二段180號對面(向北)","lon":"121.511483","lat":"24.960016","version":3},{"id":1000402,"nid":"2315300400","name":"公崙新村(豐榮醫院)","address":"安康路二段107巷口候車亭(向北)","lon":"121.512648","lat":"24.962041","version":7},{"id":1000403,"nid":"2315400400","name":"安康派出所","address":"安康路二段54號對面(向北)","lon":"121.515311","lat":"24.963642","version":6},{"id":2896,"nid":"2315300820","name":"光華新村(安康路)","address":"安康路1段306號對面(向東)","lon":"121.517942","lat":"24.963936","version":12},{"id":2858,"nid":"2315300120","name":"下城社區","address":"安康路一段271號同向(向東)","lon":"121.5235251","lat":"24.96347353","version":3},{"id":2857,"nid":"2315300020","name":"胡璉故居紀念館","address":"新北市新店區安康路一段211號(向東)","lon":"121.52598","lat":"24.962917","version":6},{"id":2934,"nid":"2315302340","name":"頂城","address":"安康路一段121號同向(向東)","lon":"121.528339","lat":"24.961725","version":4},{"id":2855,"nid":"2315300240","name":"大坪頂","address":"安康路一段75號同向(向東)","lon":"121.530152","lat":"24.961041","version":4},{"id":2679,"nid":"2315302540","name":"溪頭","address":"安康路一段16-3號對面(向東)","lon":"121.532361","lat":"24.960256","version":4},{"id":60071,"nid":"2314701600","name":"碧潭橋頭","address":"北新路一段139號對面(向北)","lon":"121.539820","lat":"24.963158","version":4},{"id":2981,"nid":"2314702000","name":"檳榔路","address":"光明街288號同向(向北)","lon":"121.5405875","lat":"24.96500149","version":3},{"id":30100,"nid":"2314700900","name":"捷運新店區公所站(北新)","address":"北新路一段86號(向北)","lon":"121.54161613426882","lat":"24.96763873691205","version":7},{"id":30101,"nid":"2314300000","name":"七張(北新路)","address":"北新路二段26號同向(向北)","lon":"121.542921","lat":"24.971513","version":6},{"id":30102,"nid":"2314301100","name":"捷運七張站","address":"捷運七張站1號出口旁(向北)","lon":"121.5430453","lat":"24.9753","version":7},{"id":30103,"nid":"2314301700","name":"新店郵局","address":"北新路二段256號同向(向北)","lon":"121.542795","lat":"24.978161","version":3},{"id":1000551,"nid":"2314500220","name":"加油站","address":"寶橋路156號前(向東)","lon":"121.548731","lat":"24.977046","version":4},{"id":1000552,"nid":"2314500720","name":"寶高產業園區","address":"寶橋路222號前(向東)","lon":"121.551231544066","lat":"24.9786235157248","version":8},{"id":2461,"nid":"1166000420","name":"景美女中","address":"木新路三段320號對面(向東)","lon":"121.555680","lat":"24.980335","version":3},{"id":1000553,"nid":"1165900020","name":"木新市場","address":"木新路三段(向東)","lon":"121.5583622","lat":"24.98100977","version":2},{"id":1000554,"nid":"1165800020","name":"力行國小","address":"木新路三段32段188號(向東)","lon":"121.559783932422","lat":"24.9813802657801","version":3},{"id":3993,"nid":"1166000220","name":"國泰新村(木新)","address":"木新路三段126號(向東)","lon":"121.561802","lat":"24.981856","version":4},{"id":4028,"nid":"1165700120","name":"司法新村","address":"木新路二段257號(向東)","lon":"121.56636","lat":"24.98305","version":2},{"id":1000540,"nid":"1165700320","name":"景文中學","address":"木新路二段173號(向東)","lon":"121.568528509552","lat":"24.9837877068618","version":5},{"id":50681,"nid":"1165700000","name":"木南公園","address":"木新路二段77號同向(向北)","lon":"121.570615","lat":"24.985348","version":5},{"id":2415,"nid":"1165100620","name":"政大","address":"指南路二段32號(向東)","lon":"121.574739","lat":"24.98778","version":7},{"id":2368,"nid":"1165200000","name":"大誠高中","address":"秀明路二段175號同向(向北)","lon":"121.576905","lat":"24.990413","version":5},{"id":50671,"nid":"1165200360","name":"萬壽橋頭(秀明)","address":"秀明路二段35號同向(向西)","lon":"121.574627","lat":"24.991863","version":6},{"id":2443,"nid":"1165603300","name":"貓纜動物園站","address":"新光路二段32號同向(向北)","lon":"121.576197","lat":"24.996309","version":5},{"id":56111,"nid":"1165600560","name":"石壁坑","address":"木柵路五段(向西)","lon":"121.583287778248","lat":"25.0028393386766","version":4},{"id":6929,"nid":"1104700460","name":"信義松仁路口(信義)","address":"信義路五段15號(向西)","lon":"121.566687674056","lat":"25.0329497897498","version":6},{"id":2029,"nid":"1100100100","name":"捷運台北101/世貿站(市府)","address":"市府路同向(向北)","lon":"121.56357599974903","lat":"25.034512868313872","version":7},{"id":2063,"nid":"1100800100","name":"市政府(市府)","address":"市府路1號(向北)","lon":"121.563625169371","lat":"25.0383666649821","version":5},{"id":3916,"nid":"1107100121","name":"捷運市政府站","address":"忠孝東路五段61號對向(向東)","lon":"121.5668354","lat":"25.04100991","version":4},{"id":2179,"nid":"1107300740","name":"興雅國中","address":"松仁路48號(向南)","lon":"121.568268559011","lat":"25.0372323905063","version":6},{"id":2121,"nid":"1105800440","name":"信義松仁路口(松仁)","address":"松仁路150號莊敬路管制站巷口南側對面(向南)","lon":"121.568236043782","lat":"25.0345352489599","version":6},{"id":2400,"nid":"1165600520","name":"石壁坑","address":"木柵路五段同向(向東)","lon":"121.58301","lat":"25.002610","version":4},{"id":2442,"nid":"1165601740","name":"捷運動物園站","address":"新光路二段38號對向(向南)","lon":"121.580221","lat":"24.99882","version":6},{"id":2512,"nid":"1165200440","name":"萬壽橋頭(新光)","address":"新光路一段164號對向(向南)","lon":"121.57363","lat":"24.993482","version":8},{"id":1000854,"nid":"1165100860","name":"新光路口","address":"指南路29號前(向西)","lon":"121.573881732316","lat":"24.9880845060964","version":5},{"id":2521,"nid":"1165700040","name":"木南公園","address":"木新路二段95號對面(向南)","lon":"121.57011","lat":"24.984828","version":5},{"id":1000522,"nid":"1165700360","name":"景文中學","address":"木新路二段156號(向西)","lon":"121.568940442089","lat":"24.9841119210195","version":6},{"id":4029,"nid":"1166400060","name":"司法新村","address":"木新路二段234號(向西)","lon":"121.56699","lat":"24.98335","version":4},{"id":2411,"nid":"1166400160","name":"忠順廟","address":"木新路三段36號同向(向西)","lon":"121.56452654233","lat":"24.982650387537","version":4},{"id":2362,"nid":"1166000060","name":"力行國小","address":"木新路三段184號同向(向西)","lon":"121.560289058141","lat":"24.9816609828931","version":5},{"id":2391,"nid":"1166000160","name":"木新市場","address":"木新路三段270號同向(向西)","lon":"121.558272457788","lat":"24.9811534735698","version":4},{"id":2462,"nid":"1166000460","name":"景美女中","address":"木新路三段320號同向(向西)","lon":"121.555554","lat":"24.980465","version":3},{"id":20306,"nid":"2314400500","name":"寶高產業園區(寶中路)","address":"新北市新店區寶中路104號對面(向北)","lon":"121.55006","lat":"24.97896","version":6},{"id":2984,"nid":"2314400960","name":"寶中路","address":"寶中路69號同向(向西)","lon":"121.548333","lat":"24.980666","version":2},{"id":2962,"nid":"2314400660","name":"臺灣銀行","address":"寶中路45號同向(向西)","lon":"121.54538","lat":"24.9794","version":3},{"id":2947,"nid":"2314301740","name":"新店郵局","address":"北新路二段193號同向(向南)","lon":"121.542478","lat":"24.978011","version":4},{"id":2853,"nid":"2314300040","name":"七張(北新路)","address":"北新路二段15號(向南)","lon":"121.5426501","lat":"24.97141","version":7},{"id":2928,"nid":"2314700940","name":"捷運新店區公所站(北新)","address":"北新路一段307號同向(向南)","lon":"121.541385","lat":"24.967768","version":5},{"id":2982,"nid":"2314702040","name":"檳榔路","address":"北新路一段207號同向(向南)","lon":"121.5404224","lat":"24.96516884","version":2},{"id":2956,"nid":"2314701640","name":"碧潭橋頭","address":"北新路一段109號(向南)","lon":"121.539199","lat":"24.962441","version":4},{"id":2950,"nid":"2315302500","name":"溪頭","address":"安康路一段70號同向(向西)","lon":"121.5319036","lat":"24.96083175","version":3},{"id":1001047,"nid":"2315300200","name":"大坪頂","address":"安康路1段75號對面(向西)","lon":"121.5298939","lat":"24.96132951","version":4},{"id":1001048,"nid":"2315302300","name":"頂城","address":"新北市新店區安康路一段74號(向西)","lon":"121.528356","lat":"24.961886","version":5},{"id":1001049,"nid":"2315300060","name":"胡璉故居紀念館","address":"新北市新店區安康路一段152號(向西)","lon":"121.526281","lat":"24.963037","version":7},{"id":1001050,"nid":"2315300160","name":"下城社區","address":"新北市新店區安康路一段271號對向(向西)","lon":"121.5239545","lat":"24.96359615","version":4},{"id":1000706,"nid":"2315300860","name":"光華新村(安康路)","address":"安康路1段308號(向西)","lon":"121.5182441","lat":"24.96414395","version":9},{"id":2900,"nid":"2315400440","name":"安康派出所","address":"安康路二段82號同向(向南)","lon":"121.514015","lat":"24.963346","version":7},{"id":2876,"nid":"2315300440","name":"公崙新村(豐榮醫院)","address":"安康路二段136號同向(向南)","lon":"121.512518","lat":"24.961978","version":5},{"id":2917,"nid":"2315400840","name":"浪漫貴族","address":"安康路二段196-1號同向(向南)","lon":"121.51084","lat":"24.95991","version":2},{"id":2886,"nid":"2315300660","name":"台北菸廠","address":"新北市新店區安康路二段278號同向(向西)","lon":"121.508391","lat":"24.958760","version":4},{"id":2905,"nid":"2315301360","name":"安康車子路口","address":"安康路二段269號同向(向西)","lon":"121.5048646","lat":"24.95808137","version":5},{"id":2979,"nid":"2315401240","name":"薏仁坑","address":"安康路二段362之1號同向(向南)","lon":"121.501307","lat":"24.957301","version":3},{"id":2901,"nid":"2315301040","name":"仁康醫院","address":"安康路二段317號對向(向南)","lon":"121.499692","lat":"24.956813","version":6},{"id":2922,"nid":"2315400960","name":"康樂新村","address":"安康路二段400號同向(向南)","lon":"121.4972383","lat":"24.95549","version":3},{"id":2859,"nid":"2315300340","name":"大茅埔","address":"安康路二段385號對向(向南)","lon":"121.494847","lat":"24.954594","version":5},{"id":1001414,"nid":"2315301100","name":"安祥路口","address":"安祥路安康路口(向西)","lon":"121.491647","lat":"24.955756","version":5},{"id":2520,"nid":"1166602400","name":"萬興圖書館","address":"萬壽路27號同向(向北)","lon":"121.57697","lat":"24.98897","version":2},{"id":60063,"nid":"2314401520","name":"寶強路口","address":"寶強路51號對面(向東)","lon":"121.543780","lat":"24.979007","version":5},{"id":4160,"nid":"2314501100","name":"寶橋中興路口一","address":"新北市新店區寶橋路140巷(向北)","lon":"121.547798","lat":"24.976428","version":7},{"id":2902,"nid":"2315301140","name":"安祥路口","address":"安康路二段391號同向(向東)","lon":"121.491777","lat":"24.9554","version":3},{"id":50672,"nid":"1165601700","name":"捷運動物園站","address":"新光路一段57號同向(向北)","lon":"121.579926","lat":"24.998553","version":4},{"id":2987,"nid":"2314401840","name":"寶橋路口","address":"中興路三段125號同向(向東)","lon":"121.546288","lat":"24.976868","version":5},{"id":1000453,"nid":"1165800120","name":"忠順廟","address":"木新路三段29號(向東)","lon":"121.56469","lat":"24.982483","version":5},{"id":2426,"nid":"1166400300","name":"指南路口","address":"木新路二段11號同向(向北)","lon":"121.570722800802","lat":"24.9871941238226","version":5},{"id":2429,"nid":"1165601460","name":"風動石","address":"木柵路五段同向(向西)","lon":"121.579255519338","lat":"25.0011783104188","version":3},{"id":309,"nid":"1165601420","name":"風動石","address":"木柵路五段3號對面(向東)","lon":"121.579341481903","lat":"25.0010545644892","version":5},{"id":2519,"nid":"1165200640","name":"萬興國小","address":"秀明路二段114號同向(向南)","lon":"121.576757","lat":"24.989679","version":7},{"id":3994,"nid":"1165800360","name":"國泰新村(木新)","address":"木新路三段133號(向西)","lon":"121.561849824052","lat":"24.9820534481377","version":4},{"id":2986,"nid":"2314401560","name":"寶強路口","address":"寶強路31號同向(向西)","lon":"121.5435326","lat":"24.97919835","version":3},{"id":1000544,"nid":"1166400340","name":"指南路口","address":"木新路二段52號(向南)","lon":"121.570658","lat":"24.986197","version":5},{"id":1000436,"nid":"1165603340","name":"貓纜動物園站","address":"新光路二段(向南)","lon":"121.576778","lat":"24.9968","version":4},{"id":1001400,"nid":"1166601020","name":"政大一","address":"萬壽路16巷2號(向東)","lon":"121.576427","lat":"24.988319","version":11},{"id":50669,"nid":"1165200400","name":"萬壽橋頭(新光)","address":"新光路一段146號同向(向北)","lon":"121.573853","lat":"24.992819","version":8},{"id":2510,"nid":"1165200320","name":"萬壽橋頭(秀明)","address":"秀明路二段8號同向(向東)","lon":"121.574153","lat":"24.99161","version":6},{"id":20310,"nid":"2315301220","name":"安華路口","address":"安康路一段323號之3號(向東)","lon":"121.521365324681","lat":"24.9637050292789","version":3},{"id":20309,"nid":"2315301260","name":"安華路口","address":"安康路一段244之1號(向西)","lon":"121.52120824524","lat":"24.9639074679223","version":4},{"id":1001409,"nid":"1166601040","name":"政大一","address":"萬壽路11號前(向南)","lon":"121.576051","lat":"24.987811","version":11},{"id":1613,"nid":"1158100120","name":"中華科技大學","address":"研究院路三段219號(向東)","lon":"121.6111873","lat":"25.03352363","version":5},{"id":3870,"nid":"1158100420","name":"凌雲站","address":"研究院路三段50號對面(向東)","lon":"121.61448946069","lat":"25.0346121838879","version":5},{"id":1618,"nid":"1158100320","name":"九如里二","address":"研究院路三段37號同向(向東)","lon":"121.61612","lat":"25.034863","version":8},{"id":50024,"nid":"1157200400","name":"凌雲五村","address":"研究院路三段10巷巷口對面(向北)","lon":"121.61695169081","lat":"25.035872068306","version":4},{"id":1616,"nid":"1157400200","name":"九如里一","address":"研究院路二段174號對向(向北)","lon":"121.6170236","lat":"25.03770122","version":5},{"id":50023,"nid":"1152900100","name":"胡適公園","address":"研究院路二段130號對向(向北)","lon":"121.617633","lat":"25.040597","version":3},{"id":50026,"nid":"1152900000","name":"中研院","address":"研究院路二段108號對向(向北)","lon":"121.616561","lat":"25.043422","version":5},{"id":1000313,"nid":"1157400100","name":"中研新村","address":"研究院路二段(向北)","lon":"121.615639","lat":"25.045074","version":3},{"id":50022,"nid":"1156400100","name":"圓拱橋","address":"研究院路二段7號同向(向北)","lon":"121.615728","lat":"25.047462","version":3},{"id":50021,"nid":"1156400000","name":"南港水廠","address":"研究院路二段1號(向北)","lon":"121.615949245107","lat":"25.0493790135067","version":4},{"id":50020,"nid":"1157100100","name":"誠正國中","address":"研究院路一段119號同向(向北)","lon":"121.61603141641","lat":"25.0515460114719","version":3},{"id":1664,"nid":"1156800260","name":"南港展覽館","address":"南港路一段65號對面(向西)","lon":"121.6156","lat":"25.05534","version":4},{"id":1660,"nid":"1156800060","name":"南港","address":"南港路一段120號(向西)","lon":"121.613658744034","lat":"25.0553944295881","version":6},{"id":1000253,"nid":"1156800560","name":"南港高工(南港路)","address":"南港路一段257號對面(向西)","lon":"121.609776304165","lat":"25.0549683149017","version":8},{"id":1651,"nid":"1157900160","name":"南港行政中心","address":"南港路一段360號(向西)","lon":"121.606693480964","lat":"25.0544113947875","version":4},{"id":50017,"nid":"1157900060","name":"台肥新村","address":"南港路二段78號同向(向西)","lon":"121.603501503157","lat":"25.0538268750408","version":3},{"id":50018,"nid":"1157800460","name":"南港輪胎","address":"南港路二段142號同向(向西)","lon":"121.600631965419","lat":"25.053410287006","version":3},{"id":50016,"nid":"1157800360","name":"東明里/臺北流行音樂中心","address":"南港路二段218號同向(向西)","lon":"121.598579867653","lat":"25.0538003797196","version":7},{"id":1000254,"nid":"1155100060","name":"土地公廟","address":"台北市南港路二段290號(向西)","lon":"121.595509916336","lat":"25.0544903819023","version":6},{"id":4000,"nid":"1157000060","name":"玉成國小","address":"南港路三段10號同向(向西)","lon":"121.592800257746","lat":"25.0543845192365","version":3},{"id":50015,"nid":"1155400060","name":"西新里(新新公園)","address":"南港路三段104號同向(向西)","lon":"121.589992575868","lat":"25.0535036880317","version":5},{"id":4001,"nid":"1155400260","name":"南港路三段","address":"南港路三段168號同向(向西)","lon":"121.587747401426","lat":"25.0530480941951","version":3},{"id":50014,"nid":"1155400160","name":"松山磚廠","address":"南港路三段252號同向(向西)","lon":"121.585050803739","lat":"25.0526502598819","version":4},{"id":15103,"nid":"1157700060","name":"玉成里","address":"八德路四段895號(向西)","lon":"121.580911886242","lat":"25.0509225264878","version":8},{"id":15104,"nid":"1056700062","name":"松山車站(八德)","address":"八德路四段691號同向(向西)","lon":"121.576598","lat":"25.050168","version":8},{"id":16001,"nid":"1056600060","name":"松山農會","address":"八德路四段641號同向(向西)","lon":"121.57491400582","lat":"25.0500731024231","version":4},{"id":1602,"nid":"1056600460","name":"饒河街觀光夜市(八德)","address":"八德路四段499號同向(向西)","lon":"121.5716","lat":"25.05","version":2},{"id":4003,"nid":"1056500360","name":"新聚里","address":"八德路四段313號同向(向西)","lon":"121.566655901166","lat":"25.0491343107615","version":5},{"id":1524,"nid":"1056500060","name":"八德東寧路口","address":"八德路四段199號同向(向西)","lon":"121.563767340338","lat":"25.0488406998915","version":5},{"id":4004,"nid":"1055500060","name":"臺北市區監理所","address":"八德路四段83號同向(向西)","lon":"121.559597153437","lat":"25.0484270908756","version":3},{"id":4005,"nid":"1055400060","name":"光復路口","address":"八德路三段223號同向(向西)","lon":"121.556757647016","lat":"25.0481511469676","version":4},{"id":4006,"nid":"1055400160","name":"美仁里","address":"八德路三段119號同向(向西)","lon":"121.553906097085","lat":"25.0482103259498","version":5},{"id":134,"nid":"1055900060","name":"臺視","address":"八德路三段10號對面候車亭(向西)","lon":"121.550231","lat":"25.048279","version":3},{"id":1215,"nid":"1055600161","name":"臺安醫院","address":"長安東路二段294號對向(向西)","lon":"121.54531","lat":"25.04829","version":3},{"id":1203,"nid":"1049000060","name":"中興中學","address":"長安東路二段189號同向(向西)","lon":"121.542821","lat":"25.04833589","version":2},{"id":1292,"nid":"1049000160","name":"長安龍江路口","address":"長安東路二段169之1號同向(向西)","lon":"121.54094","lat":"25.04838","version":2},{"id":1000255,"nid":"1049100160","name":"中山女高","address":"長安東路二段中山女高(向西)","lon":"121.537798642451","lat":"25.0484436106169","version":4},{"id":1320,"nid":"1049100240","name":"建國啤酒廠","address":"建國北路一段26號同向(向南)","lon":"121.5363796","lat":"25.04706738","version":2},{"id":6689,"nid":"1005800260","name":"臺北科技大學","address":"八德路一段33號同向(向西)","lon":"121.53146493118","lat":"25.0441330065154","version":5},{"id":2015,"nid":"1005800361","name":"華山文創園區","address":"忠孝東路2段25號(向西)","lon":"121.527413","lat":"25.043925","version":4},{"id":1998,"nid":"1005800160","name":"捷運善導寺站","address":"忠孝東路一段7號同向(向西)","lon":"121.52223","lat":"25.045222","version":3},{"id":1000082,"nid":"1004100760","name":"臺北車站(忠孝)","address":"捷運臺北車站M5出口~M4出口(交7)(向西)","lon":"121.5171831","lat":"25.04647723","version":9},{"id":1000078,"nid":"1084300040","name":"中華路北站","address":"中華路一段94號專用道(向南)","lon":"121.509144127644","lat":"25.0455115050969","version":6},{"id":1000079,"nid":"1084400340","name":"捷運西門站","address":"中華路一段公車專用道(向南)","lon":"121.508266771006","lat":"25.0425165606871","version":6},{"id":1000080,"nid":"1085000040","name":"小南門","address":"中華路1段公車專用道(向南)","lon":"121.506903709074","lat":"25.0378687908132","version":5},{"id":1926,"nid":"1006500140","name":"聯合醫院和平院區","address":"中華路二段15號對向(向南)","lon":"121.506507520259","lat":"25.0364933609706","version":3},{"id":4606,"nid":"1086200040","name":"大埔街","address":"中華路二段60號同向(向南)","lon":"121.504596603059","lat":"25.032216621174","version":3},{"id":4145,"nid":"1086100540","name":"廈安里","address":"台北市中華路二段142號(向南)","lon":"121.50408568455","lat":"25.0305627556618","version":5},{"id":1777,"nid":"1088000040","name":"南機場公寓","address":"中華路二段392號同向(向南)","lon":"121.505465333891","lat":"25.028384629531","version":3},{"id":1743,"nid":"1088100040","name":"中華南海路口","address":"中華路二段430號同向(向南)","lon":"121.506437964545","lat":"25.0273435686053","version":4},{"id":1771,"nid":"1087600140","name":"青年公園(青年)","address":"青年路12號同向(向南)","lon":"121.506023819486","lat":"25.0259638732249","version":5},{"id":1740,"nid":"1087600040","name":"中正新城","address":"台北市萬華區青年路58號(向南)","lon":"121.503183945666","lat":"25.0248005786137","version":4},{"id":1773,"nid":"1087500040","name":"青年路","address":"青年路126號同向(向南)","lon":"121.502584060851","lat":"25.0224814905119","version":3},{"id":4624,"nid":"1087400060","name":"青年路派出所","address":"萬大路423巷11號同向(向西)","lon":"121.5020378","lat":"25.02204696","version":4},{"id":4623,"nid":"1087300060","name":"光仁國小","address":"萬大路433巷55號同向(向西)","lon":"121.5006187","lat":"25.02141615","version":3},{"id":4640,"nid":"1086900200","name":"萬大國小","address":"萬大路333-335號同向(向北)","lon":"121.499894100772","lat":"25.0232906952259","version":5},{"id":1830,"nid":"1087800000","name":"德昌街口","address":"萬大路291-297號同向(向北)","lon":"121.500485","lat":"25.025045","version":4},{"id":4639,"nid":"1087900100","name":"西藏路口","address":"萬大路143-147號同向(向北)","lon":"121.500599","lat":"25.028737","version":5},{"id":4638,"nid":"1086100600","name":"萬大路","address":"萬大路65號同向(向北)","lon":"121.500635","lat":"25.0308055","version":2},{"id":1795,"nid":"1086100400","name":"莒光路口","address":"萬大路39號同向(向北)","lon":"121.500615375179","lat":"25.031831103587","version":5},{"id":1814,"nid":"1085200400","name":"萬華車站","address":"康定路廣二廣長旁停車彎(向北)","lon":"121.501128","lat":"25.033974","version":3},{"id":1784,"nid":"1084900520","name":"祖師廟(貴陽)","address":"貴陽街128號(向東)","lon":"121.502490233032","lat":"25.0399728811606","version":4},{"id":1806,"nid":"1085000420","name":"貴陽街","address":"貴陽街2段26號(向東)","lon":"121.50582384788","lat":"25.03944952637","version":3},{"id":1793,"nid":"1084600300","name":"捷運西門站","address":"中華路一段上公車專用道近寶慶路(向北)","lon":"121.508285900629","lat":"25.041730058378","version":6},{"id":1744,"nid":"1004200200","name":"中華路北站","address":"臺北市中正區中華路1段29號同向專用道(向北)","lon":"121.509380726049","lat":"25.0456964941835","version":5},{"id":1886,"nid":"1004700420","name":"臺北車站(忠孝)","address":"捷運臺北車站M6出口(向東)","lon":"121.51700353811","lat":"25.0462559043502","version":5},{"id":1997,"nid":"1005800120","name":"捷運善導寺站","address":"忠孝東路一段與林森南口以西30公尺(向東)","lon":"121.522629","lat":"25.044844","version":5},{"id":2013,"nid":"1005000120","name":"華山文創園區","address":"八德路1段27號對面(向東)","lon":"121.526233","lat":"25.044024","version":3},{"id":6690,"nid":"1005800220","name":"臺北科技大學","address":"八德路一段88號(向東)","lon":"121.532172463125","lat":"25.0440991830962","version":5},{"id":6654,"nid":"1048900420","name":"進安公園","address":"八德路二段進安公園前(向東)","lon":"121.537785","lat":"25.046247","version":3},{"id":1194,"nid":"1049200220","name":"中影八德大樓","address":"八德路二段260號同向(向東)","lon":"121.5408273","lat":"25.04670644","version":2},{"id":1196,"nid":"1049200020","name":"中崙","address":"八德路二段320號同向(向東)","lon":"121.54312","lat":"25.0472080804531","version":3},{"id":1214,"nid":"1055600220","name":"臺安醫院","address":"八德路二段386號同向(向東)","lon":"121.5462971","lat":"25.04814244","version":3},{"id":1499,"nid":"1055900020","name":"臺視","address":"八德路三段20號同向(向東)","lon":"121.5511","lat":"25.04807","version":2},{"id":1560,"nid":"1055400120","name":"美仁里","address":"八德路三段138號同向(向東)","lon":"121.55415","lat":"25.048","version":4},{"id":1516,"nid":"1055400020","name":"光復路口","address":"八德路三段212號同向(向東)","lon":"121.5571789","lat":"25.04810317","version":3},{"id":1592,"nid":"1055500020","name":"臺北市區監理所","address":"八德路四段54號同向(向東)","lon":"121.559825171794","lat":"25.048363258437","version":3},{"id":1525,"nid":"1056500021","name":"八德東寧路口","address":"八德路四段188號同向(向東)","lon":"121.563764829349","lat":"25.0487596415527","version":5},{"id":1589,"nid":"1056600220","name":"新聚里","address":"八德路四段292號同向(向東)","lon":"121.56696","lat":"25.04904","version":4},{"id":1600,"nid":"1056600420","name":"饒河街觀光夜市(八德)","address":"八德路四段489號對面(向東)","lon":"121.57146542576","lat":"25.0498157007981","version":3},{"id":1534,"nid":"1056600020","name":"松山農會","address":"八德路四段610號同向(向東)","lon":"121.573848311551","lat":"25.0499024516685","version":3},{"id":1530,"nid":"1056700020","name":"松山車站(八德)","address":"八德路四段686號同向(向東)","lon":"121.577246475627","lat":"25.0499755097464","version":12},{"id":1515,"nid":"1157700020","name":"玉成里","address":"八德路四段800號(向東)","lon":"121.58098318132","lat":"25.0508671197","version":8},{"id":1634,"nid":"1156300220","name":"松山磚廠","address":"南港路三段141號同向(向東)","lon":"121.584201721401","lat":"25.052203296391","version":3},{"id":1684,"nid":"1156300320","name":"南港路三段","address":"南港路三段97號同向(向東)","lon":"121.5872289","lat":"25.05293617","version":2},{"id":1614,"nid":"1156300020","name":"西新里(新新公園)","address":"南港路53號同向(向東)","lon":"121.58966185253","lat":"25.0532865000253","version":5},{"id":1624,"nid":"1156300120","name":"玉成國小","address":"南港路三段7號同向(向東)","lon":"121.5921075","lat":"25.05408309","version":2},{"id":1000270,"nid":"1155100020","name":"土地公廟","address":"南港路二段(向東)","lon":"121.596292330392","lat":"25.0543174926906","version":3},{"id":1635,"nid":"1157800320","name":"東明里/臺北流行音樂中心","address":"南港路二段212號對向(向東)","lon":"121.598139533007","lat":"25.0538414991689","version":7},{"id":1685,"nid":"1157800420","name":"南港輪胎","address":"南港路二段142號對面(向東)","lon":"121.60075620256","lat":"25.0533242413246","version":4},{"id":1000271,"nid":"1157800120","name":"台肥新村","address":"南港路二段31號(向東)","lon":"121.603021736172","lat":"25.053655363078","version":4},{"id":1000272,"nid":"1157900120","name":"南港行政中心","address":"南港路一段(向東)","lon":"121.607081950596","lat":"25.0543759163622","version":3},{"id":50019,"nid":"1156800520","name":"南港高工(南港路)","address":"南港路一段247號同向(向東)","lon":"121.610621161509","lat":"25.0549611074532","version":7},{"id":1643,"nid":"1155200120","name":"南港","address":"南港路一段167號同向(向東)","lon":"121.613597939232","lat":"25.0551240859182","version":3},{"id":1711,"nid":"1157100140","name":"誠正國中","address":"研究院路一段114號同向(向南)","lon":"121.615865875754","lat":"25.0518036904539","version":3},{"id":1650,"nid":"1157100040","name":"南港水廠","address":"研究院路一段187號對面(向南)","lon":"121.615625","lat":"25.049543","version":3},{"id":1707,"nid":"1156400140","name":"圓拱橋","address":"研究院路二段20號同向(向南)","lon":"121.615363","lat":"25.047199","version":3},{"id":1611,"nid":"1157400140","name":"中研新村","address":"研究院路二段88號(向南)","lon":"121.61555","lat":"25.04483","version":3},{"id":1610,"nid":"1157400040","name":"中研院","address":"研究院路二段108號同向(向南)","lon":"121.61648","lat":"25.04313","version":4},{"id":1687,"nid":"1152900140","name":"胡適公園","address":"研究院路二段132巷巷口南側25公尺(向南)","lon":"121.617338","lat":"25.039528","version":4},{"id":1620,"nid":"1157400240","name":"九如里一","address":"研究院路二段158號同向(向南)","lon":"121.6169015","lat":"25.03813813","version":4},{"id":1690,"nid":"1157200440","name":"凌雲五村","address":"研究院路二段226號對向(向南)","lon":"121.616893","lat":"25.036259","version":3},{"id":1621,"nid":"1158100360","name":"九如里二","address":"研究院路三段35號對向(向西)","lon":"121.6161708","lat":"25.03500483","version":6},{"id":1686,"nid":"1158100460","name":"凌雲站","address":"研究院路三段50號(向西)","lon":"121.6147203","lat":"25.03474253","version":4},{"id":1772,"nid":"1087600240","name":"青年社區","address":"台北市青年路38號(向南)","lon":"121.504417","lat":"25.025473","version":4},{"id":4085,"nid":"1158100240","name":"中華科技大學(正門)","address":"研究院路3段245號對面(向南)","lon":"121.6097652","lat":"25.03382827","version":3},{"id":1000965,"nid":"1158100520","name":"軍人公墓","address":"研究院路3段175號南側35公尺(向東)","lon":"121.6121944","lat":"25.0332955","version":3},{"id":1788,"nid":"1088100240","name":"國興路口","address":"中華路二段518號同向(向南)","lon":"121.508316077824","lat":"25.0256215629554","version":3},{"id":253,"nid":"1088100100","name":"青年公園(國興)","address":"國興路46號同向(向北)","lon":"121.507953","lat":"25.024607","version":5},{"id":3534,"nid":"2426200540","name":"西盛","address":"新樹路226號同向(向南)","lon":"121.433249","lat":"25.019241","version":6},{"id":3536,"nid":"2426200840","name":"西盛館","address":"新樹路274號同向(向南)","lon":"121.432578","lat":"25.013078","version":3},{"id":3535,"nid":"2426200740","name":"家麒新天地","address":"新樹路525號對面(向南)","lon":"121.432644","lat":"25.010087","version":10},{"id":3528,"nid":"2426200240","name":"正豐","address":"新樹路551巷對向(向南)","lon":"121.432786","lat":"25.007493","version":3},{"id":30032,"nid":"2426400100","name":"大唐江山","address":"民安西路468巷3號(向西)","lon":"121.431869","lat":"25.007867","version":4},{"id":30031,"nid":"2426400200","name":"民安西路403巷口","address":"新莊區民安西路407號旁(向西)","lon":"121.4299139","lat":"25.009369","version":7},{"id":30030,"nid":"2426400500","name":"光華街口","address":"民安西路357號(向西)","lon":"121.4284024","lat":"25.01056501","version":4},{"id":30029,"nid":"2426400900","name":"新寶社區","address":"民安西路277號(向北)","lon":"121.4263087","lat":"25.01254806","version":3},{"id":30028,"nid":"2426400300","name":"光明里","address":"民安西路217號(向北)","lon":"121.4260504","lat":"25.01453194","version":3},{"id":30044,"nid":"2426400400","name":"光華國小(民安西路)","address":"民安西路147號(向北)","lon":"121.426301","lat":"25.016748","version":8},{"id":30041,"nid":"2426401000","name":"福祿新城一","address":"民安西路103號(向北)","lon":"121.426917","lat":"25.018631","version":8},{"id":30008,"nid":"2426700800","name":"福祿新城二","address":"民安西路57號(向北)","lon":"121.427412","lat":"25.020330","version":8},{"id":30012,"nid":"2425800000","name":"民安陸橋","address":"民安路201號(向北)","lon":"121.426146","lat":"25.022571","version":9},{"id":1000432,"nid":"2426700300","name":"民安路","address":"民安路141號(向北)","lon":"121.425221","lat":"25.024026","version":4},{"id":3550,"nid":"2425900400","name":"後港社區","address":"四維路1號同向(向北)","lon":"121.424195","lat":"25.025331","version":3},{"id":30010,"nid":"2425900320","name":"建福路口","address":"後港一路60號(向東)","lon":"121.426468","lat":"25.026370","version":5},{"id":30023,"nid":"2425700320","name":"建安街口","address":"後港一路134號(向北)","lon":"121.429575","lat":"25.027305","version":4},{"id":3548,"nid":"2425700520","name":"後港一路","address":"後港一路186號同向(向東)","lon":"121.432011","lat":"25.027980","version":3},{"id":50617,"nid":"2425700400","name":"建國一路","address":"建國一路55號同向(向北)","lon":"121.4345361","lat":"25.03010729","version":2},{"id":4093,"nid":"2425701100","name":"捷運輔大站(建國一路)","address":"建國一路29號同向(向北)","lon":"121.434081","lat":"25.03136008","version":2},{"id":50616,"nid":"2425500220","name":"盲人重建院","address":"中正路455-2號同向(向東)","lon":"121.442607","lat":"25.033904","version":4},{"id":3560,"nid":"2424400700","name":"公園一路","address":"公園一路48號同向(向北)","lon":"121.44336","lat":"25.0357","version":5},{"id":3562,"nid":"2424200220","name":"新泰國小(新泰公園)","address":"公園一路41號同向(向東)","lon":"121.44497","lat":"25.03794","version":5},{"id":1000782,"nid":"2424200100","name":"材試所","address":"新泰路242號(向西)","lon":"121.446462","lat":"25.039479","version":7},{"id":1000783,"nid":"2424200400","name":"新泰國中南站","address":"新泰路282號同向(向北)","lon":"121.445653","lat":"25.040714","version":3},{"id":50609,"nid":"2424900100","name":"中平路","address":"中平路63號同向(向北)","lon":"121.444889","lat":"25.045135","version":4},{"id":20397,"nid":"2424900700","name":"新莊高中","address":"中平路188號(向北)","lon":"121.444915628617","lat":"25.04801","version":4},{"id":3500,"nid":"2424800320","name":"中和街口","address":"幸福路743號同向(向東)","lon":"121.448561","lat":"25.049077","version":4},{"id":3507,"nid":"2424700120","name":"中港","address":"新莊區幸福路647號(向東)","lon":"121.451369639862","lat":"25.0491543957239","version":5},{"id":3539,"nid":"2424700720","name":"幸福中華路口","address":"幸福路591號同向(向東)","lon":"121.453486","lat":"25.049192","version":4},{"id":3541,"nid":"2424701020","name":"幸福新城","address":"幸福路505號同向(向東)","lon":"121.456008","lat":"25.049301","version":3},{"id":1000788,"nid":"2424700920","name":"幸福思源路口","address":"幸福路45號(向東)","lon":"121.457859","lat":"25.049369","version":5},{"id":50615,"nid":"2425200220","name":"化成路口","address":"幸福東路55號同向(向東)","lon":"121.465090730522","lat":"25.0493263177027","version":3},{"id":1000775,"nid":"2425200400","name":"頭前里","address":"化成路410號(向北)","lon":"121.4660724","lat":"25.05098383","version":2},{"id":1000777,"nid":"2425200500","name":"頭前國小","address":"化成路542號(向北)","lon":"121.466381","lat":"25.053343","version":4},{"id":30050,"nid":"2425300200","name":"善導庵","address":"化成路638號(向北)","lon":"121.46607","lat":"25.05527","version":3},{"id":30046,"nid":"2425300300","name":"頭前庄","address":"化成路752號(向北)","lon":"121.4655436","lat":"25.05779469","version":2},{"id":1000842,"nid":"2425002220","name":"新北大道化成路口","address":"新北大道二段135號(向東)","lon":"121.465274","lat":"25.061164","version":7},{"id":3495,"nid":"2415800020","name":"新北大道中興路口","address":"新北市新莊區新北大道二段81號(向東)","lon":"121.468148097399","lat":"25.0613446467768","version":5},{"id":3978,"nid":"2416100320","name":"新北大道中華路口","address":"三重區新北大道一段172號對面(向東)","lon":"121.483061607875","lat":"25.0613696251157","version":9},{"id":13210,"nid":"2414100120","name":"三重區公所(新北大道)","address":"中山路三重市公所大門東側往前10M(向東)","lon":"121.488570","lat":"25.061249","version":7},{"id":13209,"nid":"2414101120","name":"聯合醫院(三重院區)","address":"新北大道一段2號對向(向東)","lon":"121.490767288608","lat":"25.0612882442498","version":6},{"id":3387,"nid":"2414300020","name":"大同路口","address":"重新路三段16號同向(向東)","lon":"121.49493","lat":"25.061403","version":5},{"id":60059,"nid":"2414200720","name":"捷運台北橋站","address":"重新路一段108號(捷運出口)前(向北)","lon":"121.500440","lat":"25.063054","version":3},{"id":1000398,"nid":"1036100320","name":"捷運民權西路站","address":"民權西路公車專用道(向東)","lon":"121.5178677888","lat":"25.0628480067","version":8},{"id":1435,"nid":"1036400200","name":"防癆協會","address":"承德路三段19號同向(向北)","lon":"121.51846","lat":"25.06357","version":2},{"id":10205,"nid":"1035300000","name":"大同國小","address":"承德路二段93號(向北)","lon":"121.5185171","lat":"25.06632905","version":2},{"id":10206,"nid":"1036500000","name":"民族承德路口","address":"承德路三段171號(向北)","lon":"121.5185487","lat":"25.06894017","version":2},{"id":1453,"nid":"1036700400","name":"庫倫街口","address":"承德路三段273號同向(向北)","lon":"121.519041158328","lat":"25.0725860525549","version":3},{"id":1000169,"nid":"1036800000","name":"明倫高中","address":"承德路三段距哈密街30公尺(向北)","lon":"121.5199745","lat":"25.0742494","version":3},{"id":10207,"nid":"1116700200","name":"劍潭國小","address":"承德路四段30號(向北)","lon":"121.5227513","lat":"25.08106627","version":2},{"id":1000114,"nid":"1116600100","name":"圓山皇宮大廈","address":"承德路四段93號(向北)","lon":"121.523596","lat":"25.08335644","version":3},{"id":593,"nid":"1116700000","name":"大南路口","address":"承德路四段187號同向(向北)","lon":"121.52225","lat":"25.0879","version":3},{"id":597,"nid":"1116800100","name":"士商路","address":"士商路70號對向(向北)","lon":"121.51989","lat":"25.091","version":2},{"id":581,"nid":"1116300220","name":"士林區行政中心(中正)","address":"中正路439號同向(向東)","lon":"121.519562","lat":"25.092849","version":4},{"id":586,"nid":"1116200220","name":"士林國中","address":"士林區中正路323號(向東)","lon":"121.52330153373","lat":"25.0946048451863","version":6},{"id":1000170,"nid":"1114100440","name":"捷運劍潭站(北藝中心)","address":"基河路捷運劍潭站1號出口對面(向南)","lon":"121.524748","lat":"25.084849","version":10},{"id":863,"nid":"1116600140","name":"圓山皇宮大廈","address":"承德路四段120號(向南)","lon":"121.5233264","lat":"25.08346835","version":3},{"id":919,"nid":"1116600240","name":"劍潭國小","address":"承德路四段35號同向(向南)","lon":"121.5223096","lat":"25.08105624","version":2},{"id":1442,"nid":"1036700240","name":"明倫高中","address":"承德路三段264號同向(向南)","lon":"121.5191524","lat":"25.07344017","version":2},{"id":16205,"nid":"1036600040","name":"庫倫街口","address":"承德路三段212號(向南)","lon":"121.5183341","lat":"25.07106623","version":3},{"id":1424,"nid":"1036500040","name":"民族承德路口","address":"承德路三段150號同向(向南)","lon":"121.518267306546","lat":"25.0679133670728","version":3},{"id":1401,"nid":"1036300040","name":"大同國小","address":"承德路三段52號同向(向南)","lon":"121.5181","lat":"25.06487427","version":4},{"id":1427,"nid":"1036100160","name":"民權大龍街口","address":"民權西路上近大龍街(向西)","lon":"121.516467","lat":"25.062976","version":3},{"id":13200,"nid":"2414800760","name":"捷運台北橋站","address":"重新路一段121號(向南)","lon":"121.500403","lat":"25.063210","version":6},{"id":3452,"nid":"2414300360","name":"天台廣場","address":"重新路二段65號(向西)","lon":"121.496784994","lat":"25.061930885","version":6},{"id":1000149,"nid":"2414300060","name":"大同路口","address":"重新路三段15號(向西)","lon":"121.494254721567","lat":"25.0614913406773","version":4},{"id":13212,"nid":"2414101160","name":"聯合醫院(三重院區)","address":"新北大道一段2號同向(向西)","lon":"121.49077","lat":"25.06145","version":5},{"id":3394,"nid":"2414100160","name":"三重區公所(新北大道)","address":"新北大道一段36號(向西)","lon":"121.488152","lat":"25.061474","version":6},{"id":3979,"nid":"2416100360","name":"新北大道中華路口","address":"三重區新北大道一段170號(向西)","lon":"121.483074","lat":"25.061616","version":9},{"id":3494,"nid":"2415800160","name":"新北大道重光街口","address":"新北大道二段254號(向西)","lon":"121.466776101293","lat":"25.0616455497332","version":6},{"id":1000778,"nid":"2425300040","name":"化成新北大道路口","address":"化成路421號(向南)","lon":"121.464999","lat":"25.059503","version":8},{"id":3594,"nid":"2425300340","name":"頭前庄","address":"化成路373-5號(向南)","lon":"121.465415","lat":"25.05756729","version":3},{"id":3555,"nid":"2425300240","name":"善導庵","address":"化成路321號同向(向南)","lon":"121.46593","lat":"25.0558","version":2},{"id":3597,"nid":"2425200540","name":"頭前國小","address":"化成路231號(向南)","lon":"121.466189","lat":"25.05281393","version":2},{"id":3595,"nid":"2425200440","name":"頭前里","address":"化成路205號同向(向南)","lon":"121.46599","lat":"25.05106","version":2},{"id":3515,"nid":"2425200260","name":"化成路口","address":"幸福東路62號同向(向西)","lon":"121.464816","lat":"25.049453","version":4},{"id":3540,"nid":"2424700960","name":"幸福思源路口","address":"幸福路42號同向(向西)","lon":"121.45786333734011","lat":"25.04948317165274","version":5},{"id":58061,"nid":"2424701060","name":"幸福新城","address":"幸福路534號同向(向西)","lon":"121.455669","lat":"25.049416","version":4},{"id":50612,"nid":"2424700760","name":"幸福中華路口","address":"幸福路590號同向(向西)","lon":"121.4533855","lat":"25.04932385","version":4},{"id":30035,"nid":"2424700160","name":"中港","address":"新莊區幸福路614號(向西)","lon":"121.451623157219","lat":"25.0492912897265","version":5},{"id":8208,"nid":"2424800360","name":"中和街口","address":"幸福路730號(向西)","lon":"121.448824","lat":"25.049202","version":5},{"id":20396,"nid":"2424900740","name":"新莊高中","address":"中平路135號(向南)","lon":"121.4447176","lat":"25.04788846","version":6},{"id":3498,"nid":"2424900140","name":"中平路","address":"中平路86號同向(向南)","lon":"121.444642","lat":"25.044624","version":4},{"id":3564,"nid":"2424200440","name":"新泰復興路口","address":"新北市新莊區新泰路327號(向南)","lon":"121.444856","lat":"25.041705","version":5},{"id":3538,"nid":"2424200140","name":"材試所","address":"新泰路221號同向(向東)","lon":"121.446484","lat":"25.039119","version":4},{"id":1001377,"nid":"2424200260","name":"新泰國小(新泰公園)","address":"公園一路113號對面新泰公園旁(向西)","lon":"121.44452","lat":"25.03803","version":4},{"id":50603,"nid":"2424400740","name":"公園一路","address":"公園一路41號同向(向南)","lon":"121.443206","lat":"25.035662","version":6},{"id":3543,"nid":"2425500260","name":"盲人重建院","address":"中正路386號同向(向西)","lon":"121.440631678538","lat":"25.0337008431394","version":4},{"id":3588,"nid":"2425701140","name":"捷運輔大站(建國一路)","address":"建國一路36號同向(向南)","lon":"121.433850","lat":"25.031472","version":4},{"id":3546,"nid":"2425700440","name":"建國一路","address":"建國一路96號同向(向南)","lon":"121.4345539","lat":"25.02983961","version":3},{"id":30024,"nid":"2425700560","name":"後港一路","address":"後港一路192號對面(向西)","lon":"121.43251","lat":"25.02821","version":2},{"id":3545,"nid":"2425700360","name":"建安街口","address":"後港一路115號(向南)","lon":"121.42873","lat":"25.02711","version":5},{"id":3547,"nid":"2425900360","name":"建福路口","address":"後港一路55號同向(向西)","lon":"121.426119","lat":"25.026331","version":5},{"id":3549,"nid":"2425700840","name":"後港社區","address":"後港一路14號對面(向南)","lon":"121.42461","lat":"25.02585","version":3},{"id":3525,"nid":"2426700340","name":"民安路","address":"民安路170號同向(向南)","lon":"121.4250914","lat":"25.02401714","version":3},{"id":3524,"nid":"2425800040","name":"民安陸橋","address":"民安路224號同向(向南)","lon":"121.4261035","lat":"25.02243361","version":11},{"id":3586,"nid":"2426401140","name":"福祿新城二","address":"民安西路62號(向南)","lon":"121.4272815","lat":"25.02045611","version":6},{"id":3585,"nid":"2426401040","name":"福祿新城一","address":"民安西路112號同向(向南)","lon":"121.4268159","lat":"25.01873861","version":5},{"id":30045,"nid":"2426400440","name":"光華國小(民安西路)","address":"民安西路137號(向南)","lon":"121.42625","lat":"25.01724","version":7},{"id":3529,"nid":"2426400340","name":"光明里","address":"民安西路224號同向(向南)","lon":"121.4258116","lat":"25.01439","version":3},{"id":3582,"nid":"2426400940","name":"新寶社區","address":"民安西路280號同向(向南)","lon":"121.4260776","lat":"25.01268166","version":2},{"id":3532,"nid":"2426400540","name":"光華街口","address":"民安西路372號同向(向東)","lon":"121.428101","lat":"25.010583","version":6},{"id":3521,"nid":"2426400240","name":"民安西路403巷口","address":"新莊區民安西路430號左側(向東)","lon":"121.429871","lat":"25.009224","version":8},{"id":3492,"nid":"2426400140","name":"大唐江山","address":"民安西路468弄2號同向(向東)","lon":"121.431591","lat":"25.007896","version":4},{"id":30013,"nid":"2426200200","name":"正豐","address":"新樹路541號(向北)","lon":"121.432929","lat":"25.007876","version":4},{"id":30014,"nid":"2426200700","name":"家麒新天地","address":"新樹路515號(向北)","lon":"121.432869","lat":"25.010698","version":9},{"id":30015,"nid":"2426200800","name":"西盛館","address":"新樹路465號(向北)","lon":"121.4327276","lat":"25.01294458","version":2},{"id":30017,"nid":"2426200500","name":"西盛","address":"新樹路295之3號(向北)","lon":"121.4337502","lat":"25.01986167","version":5},{"id":30018,"nid":"2426200940","name":"東方之星","address":"新樹路258號(向南)","lon":"121.4326327","lat":"25.01508972","version":2},{"id":30016,"nid":"2426200900","name":"東方之星","address":"新樹路258號(向北)","lon":"121.432839","lat":"25.015233","version":3},{"id":1000843,"nid":"2414300320","name":"天台廣場","address":"重新路二段46號(向北)","lon":"121.498323","lat":"25.062277","version":5},{"id":30001,"nid":"2425800420","name":"捷運輔大站","address":"新莊區中正路545號旁(向東)","lon":"121.435466","lat":"25.032612","version":7},{"id":3488,"nid":"2414800060","name":"三重派出所(重新路)","address":"重新路1段63號(向南)","lon":"121.501606","lat":"25.063667","version":6},{"id":8207,"nid":"2424900920","name":"新莊高中(幸福路)","address":"幸福路821號(向東)","lon":"121.445379037224","lat":"25.0490066229995","version":6},{"id":3572,"nid":"2424900960","name":"新莊高中(幸福路)","address":"幸福路830號(向西)","lon":"121.445371964966","lat":"25.049113403307","version":3},{"id":5023,"nid":"2424700820","name":"幸福東路","address":"新莊區幸福東路127號(向東)","lon":"121.461247","lat":"25.049397","version":4},{"id":5024,"nid":"2425000960","name":"幸福東路","address":"新北市新莊區幸福東路127號對面(向西)","lon":"121.461182","lat":"25.049554","version":4},{"id":20263,"nid":"2414200020","name":"三重派出所(重新路)","address":"重新路1段74號(向北)","lon":"121.501898428168","lat":"25.0636037876107","version":7},{"id":5040,"nid":"1116300040","name":"士林國小","address":"文林路412號對面(向南)","lon":"121.524789386925","lat":"25.094058815207","version":5},{"id":8627,"nid":"1157300320","name":"南港分局(重陽)","address":"重陽路30號(向東)","lon":"121.596717","lat":"25.055561","version":5},{"id":1612,"nid":"1157300020","name":"中國電視公司","address":"重陽路120號同向(向東)","lon":"121.59918","lat":"25.05646","version":2},{"id":1640,"nid":"1157300220","name":"東新國小","address":"重陽路269號對面(向東)","lon":"121.6020404","lat":"25.05746843","version":3},{"id":1715,"nid":"1155300040","name":"興華路","address":"興華路100號同向(向南)","lon":"121.605787937555","lat":"25.0558130579444","version":3},{"id":1678,"nid":"1150100200","name":"南港軟體園區南站","address":"三重路19-12號對向(向北)","lon":"121.6141291","lat":"25.05641711","version":3},{"id":1680,"nid":"1156000301","name":"南港軟體園區北站","address":"三重路39號對向(向北)","lon":"121.614279736525","lat":"25.0596223969091","version":4},{"id":1000209,"nid":"1148600300","name":"捷運東湖站(南湖高中)","address":"康寧路三段247號(向北)","lon":"121.611416","lat":"25.066845","version":3},{"id":8534,"nid":"1148600100","name":"明湖國中","address":"康寧路三段169號同向(向北)","lon":"121.611642249953","lat":"25.0702607638519","version":4},{"id":50442,"nid":"1148500160","name":"明湖國小(公共電視台)","address":"康寧路三段79號同向(向西)","lon":"121.609308386226","lat":"25.0718101504888","version":6},{"id":50443,"nid":"1148300060","name":"民權隧道","address":"民權東路六段467號同向(向西)","lon":"121.6048395","lat":"25.0723674","version":2},{"id":8675,"nid":"1149000460","name":"民權隧道二","address":"民權東路六段253號同向(向西)","lon":"121.600990","lat":"25.067297","version":3},{"id":8674,"nid":"1149000360","name":"民權東路六段(民權敦品)","address":"台北市內湖區民權東路六段207號同向(向西)","lon":"121.5984","lat":"25.06726047","version":9},{"id":8673,"nid":"1149000660","name":"國防醫學院(網球中心)","address":"民權東路六段173號向西20M同向(向西)","lon":"121.59613","lat":"25.06831","version":4},{"id":8672,"nid":"1149000960","name":"福華商場","address":"民權東路六段131號同向(向西)","lon":"121.59362","lat":"25.06897","version":2},{"id":8667,"nid":"1146600160","name":"內湖行政大樓","address":"民權東路六段83號同向(向西)","lon":"121.58832","lat":"25.06916","version":4},{"id":8666,"nid":"1146600060","name":"三民國中","address":"民權東路六段78號同向(向西)","lon":"121.58556","lat":"25.06901","version":3},{"id":8601,"nid":"1149401060","name":"時報廣場","address":"民權東路6段25號同向(向西)","lon":"121.583129808238","lat":"25.0685609459737","version":6},{"id":8602,"nid":"1149400360","name":"民權大橋","address":"民權東路六段63-15號往西走20公尺同向(向西)","lon":"121.5791","lat":"25.06702","version":2},{"id":10403,"nid":"1059200060","name":"三民國小","address":"民權東路五段26號對面(向西)","lon":"121.564002","lat":"25.063093","version":4},{"id":8650,"nid":"1058800060","name":"民權國小","address":"民權東路四段與新中街交口對向(向西)","lon":"121.5605346","lat":"25.06265373","version":2},{"id":8604,"nid":"1054900060","name":"中華航空","address":"民權東路四段100號對向(向西)","lon":"121.5555141","lat":"25.06209189","version":2},{"id":1165603308,"nid":"1045100061","name":"捷運中山國小站","address":"民權東路公車專用道(向西)","lon":"121.5259472364","lat":"25.0627519578754","version":8},{"id":1236,"nid":"1045200260","name":"民權中山路口","address":"民權東路一段上近中山北路(向西)","lon":"121.5230024","lat":"25.06285356","version":4},{"id":1000393,"nid":"1036100360","name":"捷運民權西路站","address":"民權西路公車專用道(向西)","lon":"121.518977516403","lat":"25.062948670718","version":6},{"id":1000894,"nid":"1035800000","name":"大同分局","address":"寧夏路128號(向北)","lon":"121.51466338277","lat":"25.060110116537","version":3},{"id":1235,"nid":"1045200220","name":"民權中山路口","address":"民權東路一段上近中山北路(向東)","lon":"121.5223009","lat":"25.06271419","version":4},{"id":4098,"nid":"1045100020","name":"捷運中山國小站","address":"民權東路一段74號同向(向東)","lon":"121.5253813","lat":"25.06266873","version":3},{"id":4158,"nid":"1054800120","name":"民權東路口","address":"台北市民權東路四段107巷口旁(向東)","lon":"121.552","lat":"25.06145","version":4},{"id":1496,"nid":"1054900020","name":"中華航空","address":"民權東路四段光復北路口向東100M對向(向東)","lon":"121.55578","lat":"25.06188","version":2},{"id":1511,"nid":"1054800020","name":"民權公園","address":"北市民權東路四段85號(向東)","lon":"121.5573","lat":"25.06199574","version":4},{"id":1514,"nid":"1054900320","name":"民權國小","address":"民權東路四段200號同向(向東)","lon":"121.5611","lat":"25.06247253","version":3},{"id":8671,"nid":"1059200020","name":"三民國小","address":"民權東路五段12號(向東)","lon":"121.56362","lat":"25.06283","version":4},{"id":1017,"nid":"1149400320","name":"民權大橋","address":"民權東路六段13之15號對向(向東)","lon":"121.579477870198","lat":"25.066876801458","version":4},{"id":1077,"nid":"1149401020","name":"時報廣場","address":"民權東路6段46巷巷口東側40公尺(向東)","lon":"121.58212115754","lat":"25.0680848776157","version":8},{"id":966,"nid":"1146600020","name":"三民國中","address":"民權東路六段76號同向(向東)","lon":"121.5854057","lat":"25.06880358","version":2},{"id":991,"nid":"1146600120","name":"內湖行政大樓","address":"民權東路六段138號同向(向東)","lon":"121.5889192","lat":"25.06893468","version":2},{"id":1138,"nid":"1149000920","name":"福華商場","address":"民權東路六段186號同向(向東)","lon":"121.59365","lat":"25.06874","version":2},{"id":1081,"nid":"1149000620","name":"國防醫學院(網球中心)","address":"民權東路六段208號同向(向東)","lon":"121.5957666","lat":"25.06819281","version":6},{"id":1019,"nid":"1149000320","name":"民權東路六段(民權敦品)","address":"台北市內湖區民權東路六段201號對向(向東)","lon":"121.598356860114","lat":"25.0670359070235","version":9},{"id":1024,"nid":"1149000420","name":"民權隧道二","address":"民權東路六段246號同向(向東)","lon":"121.601285503886","lat":"25.0672531124649","version":3},{"id":149,"nid":"1148300020","name":"民權隧道","address":"民權東路六段266號同向(向東)","lon":"121.6048395","lat":"25.07190837","version":2},{"id":1049,"nid":"1148600020","name":"明湖國小(公共電視台)","address":"康寧路三段54之5號同向(向東)","lon":"121.609320074507","lat":"25.0716328345384","version":7},{"id":1093,"nid":"1148600140","name":"明湖國中","address":"康寧路三段72號同向(向南)","lon":"121.6116528","lat":"25.06996983","version":2},{"id":1073,"nid":"1148600340","name":"捷運東湖站(南湖高中)","address":"康寧路三段220號同向(向南)","lon":"121.61150222666","lat":"25.0674930032886","version":3},{"id":1676,"nid":"1156000341","name":"南港軟體園區北站","address":"三重路39號(向南)","lon":"121.614204546465","lat":"25.0596870231816","version":5},{"id":1000252,"nid":"1150100240","name":"南港軟體園區南站","address":"三重路19-2號(向南)","lon":"121.613920889394","lat":"25.0565852025479","version":4},{"id":50105,"nid":"1155300000","name":"興華路","address":"興華路82號對向(向北)","lon":"121.605894620023","lat":"25.0557156774337","version":3},{"id":1000899,"nid":"1157300260","name":"東新國小","address":"重陽路237號(向西)","lon":"121.6021258","lat":"25.05766955","version":2},{"id":1165603314,"nid":"1157300060","name":"中國電視公司","address":"重陽路120號對向(向西)","lon":"121.59951","lat":"25.05684","version":1},{"id":1698,"nid":"1157300360","name":"南港分局(重陽)","address":"台北市重陽路49號(向西)","lon":"121.5960871","lat":"25.05548009","version":3},{"id":1646,"nid":"1155100300","name":"南港分局(向陽)","address":"向陽路重陽路口北側30公尺(向北)","lon":"121.594415258716","lat":"25.0553345135907","version":6},{"id":1000755,"nid":"1156000520","name":"南港高工(重陽)","address":"重陽路359號對面(向東)","lon":"121.60707","lat":"25.058155","version":7},{"id":1629,"nid":"1156000120","name":"育成高中","address":"重陽路336號同向(向東)","lon":"121.609383731004","lat":"25.0589236255379","version":4},{"id":60102,"nid":"1156000160","name":"育成高中","address":"重陽路421號(向西)","lon":"121.609312716","lat":"25.0590241206328","version":5},{"id":1001375,"nid":"1157300560","name":"南港高工(重陽)","address":"重陽路330號對面(向西)","lon":"121.605866","lat":"25.058039","version":7},{"id":20402,"nid":"1034300440","name":"南京西路口(塔城)","address":"臺北市大同區塔城街64號(向南)","lon":"121.51031","lat":"25.05265","version":5},{"id":16015,"nid":"1035000220","name":"圓環(南京)","address":"南京西路238號前(向東)","lon":"121.515705430802","lat":"25.053651217399","version":10},{"id":50432,"nid":"1147000560","name":"新明成功路口","address":"新明路22號同向(向西)","lon":"121.590455","lat":"25.060167","version":3},{"id":50431,"nid":"1147100060","name":"台北企業總部園區","address":"新明路126號同向(向西)","lon":"121.587344","lat":"25.058162","version":5},{"id":1121,"nid":"1147100560","name":"新明路","address":"新明路301號同向(向西)","lon":"121.5852542","lat":"25.05733619","version":2},{"id":50429,"nid":"1147000060","name":"週美里","address":"新明路278號同向(向西)","lon":"121.5827604","lat":"25.05620879","version":3},{"id":4801,"nid":"1034300660","name":"迪化街口(永樂市場)","address":"台北市南京西路205號(向西)","lon":"121.511243","lat":"25.053919","version":4},{"id":16005,"nid":"1056400160","name":"南京三民路口","address":"南京東路五段+三民路同向(向西)","lon":"121.561005793367","lat":"25.0515437824988","version":3},{"id":16006,"nid":"1058000060","name":"南京寧安街口","address":"南京東路四段+寧安街同向(向西)","lon":"121.555516323112","lat":"25.0516596699759","version":4},{"id":1548,"nid":"1059500060","name":"南京敦化路口(小巨蛋)","address":"南京東路三段上近敦化北路同向(向西)","lon":"121.549520919642","lat":"25.0517934820293","version":7},{"id":1547,"nid":"1054700060","name":"捷運南京復興站","address":"南京東路三段上近復興北路同向(向西)","lon":"121.544464707353","lat":"25.0518859229538","version":4},{"id":1556,"nid":"1048700460","name":"南京龍江路口","address":"南京東路三段上近龍江路同向(向西)","lon":"121.54070499861","lat":"25.0519637860586","version":3},{"id":1546,"nid":"1048700360","name":"南京建國路口","address":"南京東路三段上近建國北路二段同向(向西)","lon":"121.537271345417","lat":"25.0520896887846","version":3},{"id":16011,"nid":"1048600160","name":"捷運松江南京站","address":"松江路115號同向(捷運松江南京站4號出口)(向西)","lon":"121.533302047123","lat":"25.0521144980622","version":5},{"id":16012,"nid":"1045700260","name":"南京吉林路口","address":"南京東路二段+吉林路同向(向西)","lon":"121.530332504829","lat":"25.0521129968997","version":3},{"id":16013,"nid":"1045400160","name":"南京林森路口","address":"南京東路二段+林森北路同向(向西)","lon":"121.525717467074","lat":"25.0521676118001","version":3},{"id":16014,"nid":"1035200160","name":"捷運中山站(志仁高中)","address":"南京西路37號(向西)","lon":"121.519866","lat":"25.052867","version":7},{"id":16020,"nid":"1035000260","name":"圓環(南京)","address":"南京西路204號對面(向西)","lon":"121.516898747231","lat":"25.0535386682891","version":6},{"id":16021,"nid":"1035200120","name":"捷運中山站(志仁高中)","address":"南京西路32號門口(向東)","lon":"121.519674930441","lat":"25.0527107746344","version":7},{"id":16022,"nid":"1045400120","name":"南京林森路口","address":"南京東路一段+林森北路同向(向東)","lon":"121.525060474751","lat":"25.052069472359","version":3},{"id":16023,"nid":"1045700220","name":"南京吉林路口","address":"南京東路二段+吉林路同向(向東)","lon":"121.529855025946","lat":"25.0520078098529","version":3},{"id":16024,"nid":"1045700420","name":"捷運松江南京站","address":"南京東路二段+松江路路口(向東)","lon":"121.532730534574","lat":"25.0519697274183","version":6},{"id":50005,"nid":"1048700320","name":"南京建國路口","address":"南京東路二段上近建國北路一段同向(向東)","lon":"121.53627250499","lat":"25.0519389515979","version":4},{"id":50002,"nid":"1048700420","name":"南京龍江路口","address":"南京東路三段上近龍江路同向(向東)","lon":"121.540168930921","lat":"25.0518883069867","version":5},{"id":50004,"nid":"1055000120","name":"捷運南京復興站","address":"南京東路三段上近復興北路同向(向東)","lon":"121.543561439976","lat":"25.0518040049938","version":3},{"id":50001,"nid":"1055100220","name":"南京敦化路口(小巨蛋)","address":"南京東路三段上近敦化北路同向(向東)","lon":"121.548353475095","lat":"25.0517035084006","version":7},{"id":16029,"nid":"1058000020","name":"南京寧安街口","address":"南京東路四段+寧安街口同向(向東)","lon":"121.554737344497","lat":"25.0515488432841","version":5},{"id":16030,"nid":"1056400120","name":"南京三民路口","address":"南京東路五段+三民路同向(向東)","lon":"121.56044780496","lat":"25.0514455868942","version":3},{"id":1001141,"nid":"1146900960","name":"南京舊宗路口","address":"南京東路6段(向西)","lon":"121.579665938792","lat":"25.0563345632873","version":3},{"id":1001142,"nid":"1146900920","name":"南京舊宗路口","address":"南京東路6段(向東)","lon":"121.579810502461","lat":"25.0560262183777","version":3},{"id":50428,"nid":"1147100420","name":"週美里","address":"新明路253號同向(向東)","lon":"121.5828479","lat":"25.05609093","version":3},{"id":50430,"nid":"1147000220","name":"新明路","address":"新明路196號同向(向東)","lon":"121.5854194","lat":"25.05722486","version":2},{"id":975,"nid":"1147100020","name":"台北企業總部園區","address":"新明路245號同向(向東)","lon":"121.587031","lat":"25.057943","version":5},{"id":1146,"nid":"1147100620","name":"新明成功路口","address":"新明路87號同向(向東)","lon":"121.590623","lat":"25.06008","version":3},{"id":16016,"nid":"1034300320","name":"延平一站(南京)","address":"南京西路350號同向(向東)","lon":"121.51130002943","lat":"25.053799726585","version":4},{"id":4665,"nid":"1035000420","name":"圓環(鈕釦街)","address":"南京西路306號(向東)","lon":"121.513268344324","lat":"25.0539552344985","version":7},{"id":1484,"nid":"1034100640","name":"聯合醫院中興院區(塔城)","address":"塔城街30號同向(向南)","lon":"121.510398526977","lat":"25.0513352337636","version":6},{"id":1485,"nid":"1034100600","name":"聯合醫院中興院區(西寧)","address":"西寧北路醫院側門(向北)","lon":"121.5084","lat":"25.05126","version":4},{"id":50107,"nid":"1156000060","name":"三重里","address":"台北市南港區松河街重陽路口東北側50公尺(向西)","lon":"121.610362134069","lat":"25.0594983981219","version":9},{"id":1606,"nid":"1156000020","name":"三重里","address":"臺北市重陽路449號對面(向東)","lon":"121.610399","lat":"25.059321","version":8},{"id":7650,"nid":"2215001300","name":"環河里","address":"福德一路446號同向(向北)","lon":"121.62589","lat":"25.05923","version":2},{"id":7647,"nid":"2215000700","name":"泛碟科技","address":"福德一路379號同向(向北)","lon":"121.628202","lat":"25.061017","version":5},{"id":7648,"nid":"2214900020","name":"大樹木業","address":"福德一路305號同向(向東)","lon":"121.630064","lat":"25.062346","version":5},{"id":6753,"nid":"2215000400","name":"北峰國小","address":"福德一路296號同向(向東)","lon":"121.63165","lat":"25.06338","version":4},{"id":7675,"nid":"2214900700","name":"理明社區","address":"福德一路253號同向(向北)","lon":"121.633587","lat":"25.064615","version":6},{"id":7674,"nid":"2214800100","name":"台北奇蹟","address":"汐止區福德一路203號旁(向北)","lon":"121.635248","lat":"25.065549","version":8},{"id":1001451,"nid":"2214800500","name":"柏克力托兒所","address":"汐止區福德一路149號前(向北)","lon":"121.636626","lat":"25.066714","version":7},{"id":2718,"nid":"2215100000","name":"人情味小鎮","address":"福德一路1號同向(向北)","lon":"121.639022","lat":"25.069847","version":4},{"id":7652,"nid":"2215101260","name":"康福里","address":"福德三路3號對面(向西)","lon":"121.637965","lat":"25.069658","version":7},{"id":4172,"nid":"2215101760","name":"興福里","address":"汐止區福德二路28號(向南)","lon":"121.634742","lat":"25.067918","version":6},{"id":7686,"nid":"2215100160","name":"大汐止百貨","address":"福德二路102號同向(向西)","lon":"121.632409","lat":"25.066101","version":4},{"id":7619,"nid":"2215800200","name":"世電社區","address":"中興路204號(向北)","lon":"121.631401137544","lat":"25.0660033327685","version":5},{"id":7643,"nid":"2215000360","name":"北峰里(康寧街)","address":"康寧街373號同向(向西)","lon":"121.628825","lat":"25.067787","version":5},{"id":2777,"nid":"2215000860","name":"金龍國小(康寧街)","address":"康寧街301號(向西)","lon":"121.626867537731","lat":"25.067368167607","version":7},{"id":2725,"nid":"2215000260","name":"木南煤礦","address":"康寧街251號同向(向西)","lon":"121.62487","lat":"25.067032","version":3},{"id":2799,"nid":"2215300760","name":"經貿園區","address":"康寧街139號同向(向西)","lon":"121.621242309823","lat":"25.0666228369498","version":5},{"id":2730,"nid":"2215300260","name":"北山里","address":"康寧街58號同向(向西)","lon":"121.618948","lat":"25.066708","version":3},{"id":8531,"nid":"1148700160","name":"東湖國小","address":"東湖路133號同向(向西)","lon":"121.616680","lat":"25.068177","version":3},{"id":5441,"nid":"1148700060","name":"五分社區","address":"東湖路47號同向(向西)","lon":"121.614308439756","lat":"25.068763284981","version":5},{"id":1107,"nid":"1146700140","name":"湖興","address":"成功路二段322號同向(向南)","lon":"121.590661157725","lat":"25.0680308659982","version":3},{"id":985,"nid":"1146700040","name":"上灣仔","address":"成功路二段252號同向(向南)","lon":"121.590521443523","lat":"25.0670002134225","version":3},{"id":50433,"nid":"1146700240","name":"石潭公園(成功)","address":"向陽路、成功路二段橋下(向南)","lon":"121.591015","lat":"25.061041","version":4},{"id":1647,"nid":"1155100340","name":"南港分局(向陽)","address":"向陽路139號同向(向南)","lon":"121.5937887","lat":"25.05574836","version":4},{"id":1000314,"nid":"1155100440","name":"南港高中","address":"向陽路80號對面(向南)","lon":"121.5949802","lat":"25.0530195","version":3},{"id":1697,"nid":"1155700260","name":"捷運昆陽站","address":"忠孝東路6段422號對面(向西)","lon":"121.593165","lat":"25.050346","version":7},{"id":1000319,"nid":"1155100400","name":"南港高中","address":"向陽路84號(向北)","lon":"121.595233108141","lat":"25.0529513842885","version":4},{"id":50434,"nid":"1147000400","name":"石潭公園(成功)","address":"向陽路成功路二段橋下對面(向北)","lon":"121.591281","lat":"25.061289","version":5},{"id":8663,"nid":"1146700000","name":"上灣仔","address":"成功路二段179號對面(向北)","lon":"121.590714855835","lat":"25.066818699184","version":3},{"id":8664,"nid":"1146700100","name":"湖興","address":"成功路二段233號同向(向北)","lon":"121.59085370773","lat":"25.067861865327","version":3},{"id":986,"nid":"1148700020","name":"五分社區","address":"東湖路82號同向(向東)","lon":"121.614356340721","lat":"25.0686868392957","version":5},{"id":8530,"nid":"1148700120","name":"東湖國小","address":"東湖路128號(向東)","lon":"121.616720","lat":"25.068103","version":3},{"id":7684,"nid":"2215100520","name":"北山里","address":"康寧街46號同向(向東)","lon":"121.618528","lat":"25.066676","version":3},{"id":2727,"nid":"2215000220","name":"木南煤礦","address":"康寧街267號對向(向東)","lon":"121.624809","lat":"25.066839","version":4},{"id":2729,"nid":"2215800240","name":"世電社區","address":"中興路153號同向(向南)","lon":"121.631193","lat":"25.065928","version":4},{"id":2720,"nid":"2215100120","name":"大汐止百貨","address":"福德二路95號同向(向東)","lon":"121.632544","lat":"25.066005","version":5},{"id":4173,"nid":"2215101720","name":"興福里","address":"汐止區福德二路23號(向北)","lon":"121.635229","lat":"25.068116","version":7},{"id":2737,"nid":"2214800240","name":"生活大國社區","address":"生活大國社區(向南)","lon":"121.637887","lat":"25.068376","version":3},{"id":2784,"nid":"2214800540","name":"柏克力托兒所","address":"福德一路156號同向(向南)","lon":"121.636377","lat":"25.066706","version":4},{"id":1001452,"nid":"2214800140","name":"台北奇蹟","address":"汐止區福德一路186號(向南)","lon":"121.635430","lat":"25.065829","version":8},{"id":2792,"nid":"2215001140","name":"理明社區","address":"福德一路258號同向(向南)","lon":"121.633348","lat":"25.064620","version":6},{"id":2735,"nid":"2215000440","name":"北峰國小","address":"福德一路296號同向(向西)","lon":"121.631498","lat":"25.063460","version":3},{"id":7649,"nid":"2214900060","name":"大樹木業","address":"福德一路305號(向西)","lon":"121.63","lat":"25.06244","version":3},{"id":2771,"nid":"2215000740","name":"泛碟科技","address":"福德一路390號同向(向南)","lon":"121.62789","lat":"25.06101","version":2},{"id":7651,"nid":"2215001340","name":"環河里","address":"福德一路452號前(529637號路燈燈桿旁)(向南)","lon":"121.62608","lat":"25.05941","version":3},{"id":1000105,"nid":"1149000560","name":"金湖路口","address":"金湖路380號(向西)","lon":"121.60468992917","lat":"25.0735474046187","version":14},{"id":50503,"nid":"1149000860","name":"衛勤訓練中心","address":"金湖路328號之2同向(向西)","lon":"121.602397","lat":"25.07383","version":4},{"id":50504,"nid":"1146100060","name":"美國在臺協會","address":"金湖路179號對面(向西)","lon":"121.599295","lat":"25.079518","version":5},{"id":8532,"nid":"1146100360","name":"康寧派出所","address":"金湖路95號對面(向西)","lon":"121.5978951","lat":"25.08111607","version":4},{"id":8412,"nid":"1145700460","name":"清白里","address":"金湖路24號同向(向西)","lon":"121.596227","lat":"25.082986","version":4},{"id":1071,"nid":"1148900040","name":"捷運內湖站","address":"臺北市成功路4段178號(向南)","lon":"121.593879114086","lat":"25.0834615421604","version":8},{"id":1103,"nid":"1148900140","name":"湖光市場","address":"成功路四段36號同向(向南)","lon":"121.591807350736","lat":"25.0817360140354","version":3},{"id":1029,"nid":"1146000260","name":"成功路三段","address":"成功路三段164號同向(向西)","lon":"121.589838083526","lat":"25.0798544258006","version":4},{"id":1012,"nid":"1146000140","name":"方濟中學","address":"成功路三段61號對面南側天橋下候車亭(向南)","lon":"121.59007719697958","lat":"25.076435413204408","version":4},{"id":50501,"nid":"1147200240","name":"將軍嶺","address":"成功路二段494號同向(向南)","lon":"121.58972","lat":"25.073372","version":3},{"id":1080,"nid":"1147200140","name":"國防醫學中心","address":"成功路二段414號同向(向南)","lon":"121.589869957803","lat":"25.0710371489715","version":4},{"id":339,"nid":"1147200100","name":"國防醫學中心","address":"成功路二段414號對向(向北)","lon":"121.590031196316","lat":"25.0712104683315","version":4},{"id":50500,"nid":"1147200200","name":"將軍嶺","address":"成功路二段367號同向(向北)","lon":"121.590016770287","lat":"25.0738091792986","version":3},{"id":3996,"nid":"1146200000","name":"方濟中學","address":"方濟中學門口往南53m(向北)","lon":"121.590231346227","lat":"25.0768845629687","version":3},{"id":8520,"nid":"1146000200","name":"成功路三段","address":"成功路三段141號(向北)","lon":"121.589939880159","lat":"25.0796177267452","version":3},{"id":8537,"nid":"1145900100","name":"湖光市場","address":"成功路四段49號同向(向北)","lon":"121.59200882874","lat":"25.0816997666211","version":3},{"id":8538,"nid":"1145700300","name":"捷運內湖站","address":"成功路四段155號同向(向北)","lon":"121.594132","lat":"25.08334","version":6},{"id":1101,"nid":"1145700420","name":"清白里","address":"金湖路23號同向(向東)","lon":"121.5956787","lat":"25.08329381","version":3},{"id":1088,"nid":"1146100320","name":"康寧派出所","address":"金湖路95號前(向東)","lon":"121.5977367","lat":"25.08099496","version":4},{"id":967,"nid":"1146100020","name":"美國在臺協會","address":"金湖路175號(向東)","lon":"121.599056","lat":"25.079466","version":4},{"id":1134,"nid":"1149000820","name":"衛勤訓練中心","address":"金湖路361號同向(向東)","lon":"121.602349","lat":"25.073588","version":4},{"id":1000106,"nid":"1145700220","name":"金湖路口","address":"金湖路403號(向東)","lon":"121.604275942446","lat":"25.0734224462912","version":12},{"id":1449,"nid":"1034900160","name":"後車站","address":"重慶北路一段19號同向(向西)","lon":"121.5151374","lat":"25.05143327","version":3},{"id":16019,"nid":"1035000300","name":"圓環(重慶)","address":"重慶北路一段85號同向(向北)","lon":"121.514207","lat":"25.052844","version":5},{"id":5047,"nid":"1147000360","name":"潭美公園","address":"南京東路六段350號對面(向西)","lon":"121.5856823","lat":"25.05964185","version":2},{"id":5048,"nid":"1146901020","name":"潭美公園","address":"南京東路六段350號(向東)","lon":"121.5857387","lat":"25.0591848","version":4},{"id":5046,"nid":"1146900860","name":"南京金莊路口","address":"南京東路六段503號(向西)","lon":"121.589212889978","lat":"25.0618022015955","version":3},{"id":1708,"nid":"1156000420","name":"園區街","address":"南港區園區街3號(向東)","lon":"121.61241","lat":"25.05897","version":5},{"id":50106,"nid":"1156000460","name":"園區街","address":"臺北市南港區園區街28號(向西)","lon":"121.61282","lat":"25.05914","version":6},{"id":55005,"nid":"1156000000","name":"三重里","address":"松河街重陽路口東北側50公尺(向北)","lon":"121.611200","lat":"25.060558","version":6},{"id":1462,"nid":"1036700500","name":"捷運圓山站","address":"酒泉街9號同向(向北)","lon":"121.520216","lat":"25.069744","version":4},{"id":101,"nid":"1046100200","name":"臺北市立美術館","address":"中山北路三段181號同向(向北)","lon":"121.5240266","lat":"25.07222485","version":2},{"id":1356,"nid":"1046201620","name":"圓山大飯店","address":"北安路47號對向(向東)","lon":"121.528167347349","lat":"25.0772703676354","version":3},{"id":1195,"nid":"1046200420","name":"中央電台","address":"北安路87號同向(向東)","lon":"121.53000062511","lat":"25.0779258290758","version":10},{"id":1260,"nid":"1046200520","name":"忠烈祠","address":"北安路91號同向(向東)","lon":"121.5319142","lat":"25.07800478","version":4},{"id":4740,"nid":"1046200020","name":"經國七海文化園區","address":"北安路269號對面(向東)","lon":"121.535397","lat":"25.07778224","version":6},{"id":20418,"nid":"1046201500","name":"堤頂大道口","address":"基湖路(向北)","lon":"121.56405","lat":"25.07839","version":2},{"id":8405,"nid":"1149200300","name":"基湖站","address":"基湖路25號同向(向北)","lon":"121.56489","lat":"25.0801","version":2},{"id":8404,"nid":"1149200520","name":"基湖路口","address":"瑞光路586號(向東)","lon":"121.5662362","lat":"25.08025003","version":3},{"id":1007,"nid":"1149200020","name":"仁寶大樓","address":"瑞光路498號同向(向東)","lon":"121.5684974","lat":"25.07921316","version":2},{"id":1001795,"nid":"1149200200","name":"瑞光路393巷","address":"瑞光路393巷與瑞光路交叉口東南側(向北)","lon":"121.57298","lat":"25.07768","version":4},{"id":997,"nid":"1144400220","name":"捷運港墘站(內湖高工)","address":"內湖路一段635號同向(向東)","lon":"121.574618145655","lat":"25.0801493693391","version":5},{"id":999,"nid":"1146400020","name":"內湖國小","address":"內湖路二段84號同向(向東)","lon":"121.5812755","lat":"25.07929048","version":2},{"id":1133,"nid":"1146400620","name":"達人高中(臺灣戲曲學院)","address":"內湖路2段306號旁同向(向東)","lon":"121.5868","lat":"25.08114","version":7},{"id":993,"nid":"1144900020","name":"內湖派出所","address":"內湖路二段245號~251號對面(向東)","lon":"121.5894925","lat":"25.08178839","version":6},{"id":4657,"nid":"1144800240","name":"港墘派出所","address":"港墘路113號對面(向南)","lon":"121.57619","lat":"25.078636","version":7},{"id":1000895,"nid":"1149200760","name":"瑞光港墘路口","address":"瑞光路356號對面候車亭(向西)","lon":"121.573134","lat":"25.077273","version":5},{"id":1000896,"nid":"1149200060","name":"仁寶大樓","address":"瑞光路500號對面(向西)","lon":"121.568256","lat":"25.079478","version":2},{"id":8403,"nid":"1149200560","name":"基湖路口","address":"瑞光路639號同向(向西)","lon":"121.565903409458","lat":"25.0805158061818","version":3},{"id":1083,"nid":"1149200340","name":"基湖站","address":"基湖路37號對向(向南)","lon":"121.5646071","lat":"25.07973077","version":2},{"id":1102,"nid":"1046201540","name":"堤頂大道口","address":"基湖路168號(向南)","lon":"121.56305","lat":"25.07666","version":3},{"id":1268,"nid":"1046200760","name":"明水路三","address":"明水路435號(向西)","lon":"121.54947","lat":"25.07742","version":2},{"id":1177,"nid":"1046500060","name":"大直抽水站","address":"明水路369號同向(向西)","lon":"121.54534","lat":"25.07757","version":3},{"id":1213,"nid":"1046500360","name":"北安國中","address":"明水路325號同向(向西)","lon":"121.54181","lat":"25.07768","version":2},{"id":9436,"nid":"1040400060","name":"忠烈祠","address":"北安路305號同向(向西)","lon":"121.535552182321","lat":"25.0780024350627","version":3},{"id":9434,"nid":"1046200460","name":"中央電台","address":"北安路87巷同向(向西)","lon":"121.530144788528","lat":"25.0781282212443","version":9},{"id":1357,"nid":"1046201660","name":"圓山大飯店","address":"北安路47號同向(向西)","lon":"121.527964269875","lat":"25.077322358349","version":3},{"id":4121,"nid":"1046100240","name":"臺北市立美術館","address":"中山北路三段181號對面(向南)","lon":"121.523095139749","lat":"25.070066233009","version":3},{"id":1407,"nid":"1045200160","name":"花博公園","address":"民族西路同向(向西)","lon":"121.520798366208","lat":"25.0685957947607","version":4},{"id":1001373,"nid":"1036500240","name":"捷運圓山站","address":"玉門街迴轉道西側(向南)","lon":"121.5199738","lat":"25.06919565","version":2},{"id":8523,"nid":"1147500060","name":"內湖高中","address":"文德路234號同向(向西)","lon":"121.5883097","lat":"25.07901319","version":2},{"id":1109,"nid":"1147500260","name":"捷運文德站(碧湖公園)","address":"文德路214號同向(向西)","lon":"121.584249089971","lat":"25.0785852271108","version":8},{"id":8415,"nid":"1147300060","name":"湖光國宅","address":"文德路25號同向(向西)","lon":"121.58078","lat":"25.07859","version":2},{"id":888,"nid":"1117100340","name":"葫蘆寺(葫蘆里)","address":"延平北路五段217號同向(向南)","lon":"121.50958853792531","lat":"25.085288548110366","version":5},{"id":890,"nid":"1116501040","name":"葫蘆堵市場","address":"延平北路五段177號同向(向南)","lon":"121.5100276","lat":"25.08307587","version":2},{"id":779,"nid":"1117100240","name":"海光新村","address":"延平北路五段105號同向(向南)","lon":"121.5103891","lat":"25.08132113","version":2},{"id":740,"nid":"1116500340","name":"社子消防分隊","address":"台北市辛亥路同向(向南)","lon":"121.5109944","lat":"25.07952198","version":5},{"id":1433,"nid":"1037200040","name":"污水處理廠","address":"延平北路四段235號同向(向南)","lon":"121.5118","lat":"25.07605","version":3},{"id":1434,"nid":"1037300020","name":"老師里","address":"酒泉街170號同向(向東)","lon":"121.5115542","lat":"25.07205633","version":4},{"id":1000341,"nid":"1037300220","name":"酒泉街","address":"酒泉街112號(向東)","lon":"121.5133789","lat":"25.07204184","version":2},{"id":1000168,"nid":"1036700020","name":"大龍峒保安宮","address":"庫倫街62號(向東)","lon":"121.5154577","lat":"25.07195442","version":2},{"id":1452,"nid":"1037400220","name":"庫倫街","address":"重慶北路三段+昌吉街48號同向(向東)","lon":"121.5180213","lat":"25.07188056","version":2},{"id":1406,"nid":"1045200120","name":"花博公園","address":"民族西路同向(向東)","lon":"121.5212952","lat":"25.06841334","version":3},{"id":1000901,"nid":"1046100020","name":"大同大學","address":"大同大學(美術公園)(向東)","lon":"121.5242636","lat":"25.06834316","version":2},{"id":1349,"nid":"1046000340","name":"景福宮","address":"林森北路626號同向(向南)","lon":"121.5255625","lat":"25.06725254","version":2},{"id":1193,"nid":"1045300140","name":"中山國小","address":"林森北路548號同向(向南)","lon":"121.5255005","lat":"25.06394478","version":2},{"id":1376,"nid":"1045100240","name":"新興國中","address":"林森北路476號對向(向南)","lon":"121.5255106","lat":"25.06108573","version":2},{"id":1380,"nid":"1045100440","name":"聚盛里","address":"林森北路382號同向(向南)","lon":"121.52549","lat":"25.05883","version":3},{"id":10402,"nid":"1044600260","name":"華泰飯店","address":"民生東路一段25號同向(向西)","lon":"121.52445","lat":"25.05814","version":2},{"id":10413,"nid":"1044800160","name":"馬偕醫院","address":"民生西路19號同向(向西)","lon":"121.52136241205059","lat":"25.05785889251285","version":5},{"id":1342,"nid":"1044800360","name":"捷運雙連站","address":"民生西路105號(向西)","lon":"121.519034332355","lat":"25.0575481163977","version":5},{"id":10412,"nid":"1035600260","name":"靜修女中","address":"民生西路245號同向(向西)","lon":"121.5149159","lat":"25.05716475","version":4},{"id":10411,"nid":"1034400260","name":"迪化街","address":"民生西路353號同向(向西)","lon":"121.5109513","lat":"25.05705615","version":2},{"id":16251,"nid":"1034200040","name":"大稻埕碼頭","address":"淡水河第五號疏散門西南側(向南)","lon":"121.50794870316","lat":"25.0567479019514","version":3},{"id":219,"nid":"1034200240","name":"延平宮","address":"臺北市大稻埕堤外防水道 (約4k+870處)(向南)","lon":"121.50711199339771","lat":"25.053427689294423","version":4},{"id":4802,"nid":"1034300500","name":"南京西寧路口","address":"南京西路265號(向北)","lon":"121.508817","lat":"25.054005","version":3},{"id":1420,"nid":"1034200100","name":"民生西寧路口","address":"西寧北路85號同向(向北)","lon":"121.5090487","lat":"25.05638868","version":2},{"id":1451,"nid":"1034400220","name":"迪化街","address":"民生西路330號同向(向東)","lon":"121.5113363","lat":"25.05695365","version":2},{"id":1482,"nid":"1035600220","name":"靜修女中","address":"民生西路214號同向(向東)","lon":"121.515066","lat":"25.057115","version":6},{"id":1486,"nid":"1035600320","name":"雙連市場","address":"民生西路198之1號同向(向東)","lon":"121.51644","lat":"25.0570425","version":4},{"id":1463,"nid":"1035400220","name":"捷運雙連站","address":"民生西路142號同向(向東)","lon":"121.518782","lat":"25.057346","version":5},{"id":1458,"nid":"1044800120","name":"馬偕醫院","address":"民生西路44號同向(向東)","lon":"121.5215461","lat":"25.05773178","version":2},{"id":10414,"nid":"1044600220","name":"華泰飯店","address":"民生東路一段32號同向(向東)","lon":"121.52482","lat":"25.05794","version":2},{"id":1379,"nid":"1045100400","name":"聚盛里","address":"林森北路382號對向(向北)","lon":"121.52563","lat":"25.05865","version":3},{"id":7609,"nid":"1045100200","name":"新興國中","address":"林森北路477號(向北)","lon":"121.5257163","lat":"25.06130893","version":2},{"id":7607,"nid":"1045300100","name":"中山國小","address":"林森北路530號(向北)","lon":"121.52572","lat":"25.06352","version":2},{"id":7606,"nid":"1046000300","name":"景福宮","address":"林森北路637號同向(向北)","lon":"121.5258353","lat":"25.06698732","version":2},{"id":16261,"nid":"1046100060","name":"大同大學","address":"民族東路8號對面對向(向西)","lon":"121.5239878","lat":"25.06857831","version":2},{"id":16204,"nid":"1036700360","name":"庫倫街","address":"庫倫街27號同向(向西)","lon":"121.5176838","lat":"25.07201334","version":2},{"id":1000072,"nid":"1036700060","name":"大龍峒保安宮","address":"庫倫街62號對面候車亭(向西)","lon":"121.515621","lat":"25.07209068","version":2},{"id":1001791,"nid":"1037300160","name":"酒泉重慶路口","address":"酒泉街139號(向西)","lon":"121.514591","lat":"25.072042","version":6},{"id":1457,"nid":"1037300260","name":"酒泉街","address":"酒泉街110號對向(向西)","lon":"121.5135209","lat":"25.07218551","version":2},{"id":16215,"nid":"1037300060","name":"老師里","address":"酒泉街217號同向(向西)","lon":"121.511508049849","lat":"25.0721839786533","version":5},{"id":3896,"nid":"1037200000","name":"污水處理廠","address":"延平北路四段235巷對面(向北)","lon":"121.511897445316","lat":"25.0755727353769","version":5},{"id":5991,"nid":"1116500300","name":"社子消防分隊","address":"延平北路五段8號(向北)","lon":"121.5112234","lat":"25.07941175","version":5},{"id":5990,"nid":"1116500400","name":"海光新村","address":"延平北路五段68號同向(向北)","lon":"121.510762398982","lat":"25.080711059769","version":3},{"id":5989,"nid":"1116501000","name":"葫蘆堵市場","address":"延平北路五段176號同向(向北)","lon":"121.510232993555","lat":"25.0830573942155","version":3},{"id":5988,"nid":"1117300200","name":"葫蘆寺(葫蘆里)","address":"延平北路五段312號(向北)","lon":"121.5096458","lat":"25.08602215","version":4},{"id":1001402,"nid":"1117400440","name":"台北海大","address":"延平北路九段235號前(向南)","lon":"121.4708548","lat":"25.10818883","version":3},{"id":783,"nid":"1117401140","name":"浮線","address":"延平北路九段同向(向南)","lon":"121.4725103","lat":"25.10658744","version":2},{"id":827,"nid":"1117401540","name":"富洲里九段","address":"延平北路九段99號同向(向南)","lon":"121.47427","lat":"25.10614","version":3},{"id":757,"nid":"1117400840","name":"威靈廟","address":"延平北路九段37巷同向(向南)","lon":"121.4762383","lat":"25.10585744","version":2},{"id":828,"nid":"1117401640","name":"富洲里八段","address":"延平北路八段79號同向(向南)","lon":"121.48448","lat":"25.10563","version":3},{"id":895,"nid":"1117401940","name":"福安國中","address":"延平北路八段1號同向(向南)","lon":"121.4872193","lat":"25.10323827","version":2},{"id":942,"nid":"1117402040","name":"臨江園","address":"延平北路七段225號同向(向南)","lon":"121.48915","lat":"25.1017","version":2},{"id":691,"nid":"1117400540","name":"地藏禪寺","address":"延平北路七段189號同向(向南)","lon":"121.49168","lat":"25.09956","version":2},{"id":3869,"nid":"1117200040","name":"下竹圍","address":"延平北路七段143號同向(向南)","lon":"121.49333","lat":"25.09816","version":4},{"id":894,"nid":"1117201040","name":"福安區民活動中心","address":"延平北路七段115號同向(向南)","lon":"121.49461","lat":"25.09707","version":3},{"id":893,"nid":"1117200940","name":"福安里","address":"延平北路七段63巷南側同向(向南)","lon":"121.49561","lat":"25.09612","version":3},{"id":830,"nid":"1117200840","name":"普濟堂","address":"延平北路七段3號同向(向南)","lon":"121.497441758086","lat":"25.094151501983","version":3},{"id":670,"nid":"1117200540","name":"社子國小二","address":"延平北路六段308號對向(向南)","lon":"121.5020824","lat":"25.09001798","version":2},{"id":741,"nid":"1117200440","name":"社子國小","address":"延平北路六段308號對面(向南)","lon":"121.502875912769","lat":"25.0896460928075","version":4},{"id":739,"nid":"1117200320","name":"社子派出所","address":"延平北路六段195號同向(向東)","lon":"121.5056145","lat":"25.08933251","version":3},{"id":5034,"nid":"1117200240","name":"社子市場二","address":"延平北路六段(向南)","lon":"121.5081045","lat":"25.0887967","version":3},{"id":738,"nid":"1117200140","name":"社子市場","address":"延平北路六段65號同向(向南)","lon":"121.5087166","lat":"25.0880464","version":2},{"id":1001006,"nid":"1036300240","name":"昌吉重慶路口","address":"重慶北路公車專用道(向南)","lon":"121.5136438","lat":"25.06615028","version":2},{"id":8622,"nid":"1035900040","name":"捷運大橋頭站","address":"捷運大橋頭站公車專用道(向南)","lon":"121.513516380874","lat":"25.0633249732882","version":5},{"id":8624,"nid":"1035800340","name":"涼州重慶路口","address":"公車專用道(向南)","lon":"121.513509342762","lat":"25.060980060423","version":3},{"id":1421,"nid":"1035800140","name":"民生重慶路口","address":"民生西路上近重慶北路同向(向南)","lon":"121.51369271164","lat":"25.0571504842388","version":4},{"id":1411,"nid":"1034900240","name":"臺北車站(承德)","address":"承德路一段30號(向南)","lon":"121.5167729","lat":"25.05073509","version":3},{"id":1895,"nid":"1035100420","name":"臺北車站(鄭州)","address":"捷運臺北車站M1出口~臺北車站北1門(向東)","lon":"121.51719764702355","lat":"25.0484971857801","version":6},{"id":50688,"nid":"1004100540","name":"行政院","address":"中山北路一段20號同向(向南)","lon":"121.519759690546","lat":"25.046484462941","version":3},{"id":50687,"nid":"1005500340","name":"臺大醫院","address":"中山南路與徐州路交叉口東南側候車亭(向南)","lon":"121.518504221004","lat":"25.04249755321","version":3},{"id":1993,"nid":"1004801100","name":"捷運台大醫院站","address":"捷運臺大醫院案3號出口西側20至80公尺公園路公車停靠區(向北)","lon":"121.5163535","lat":"25.04192722","version":3},{"id":1890,"nid":"1004100820","name":"臺北車站(青島)","address":"青島西路15號同向(向東)","lon":"121.517704","lat":"25.04484411","version":2},{"id":1000178,"nid":"1034900100","name":"後車站","address":"重慶北路一段(向北)","lon":"121.5135627","lat":"25.05026956","version":3},{"id":1422,"nid":"1035600000","name":"民生重慶路口","address":"民生西路上近重慶北路同向(向北)","lon":"121.513825816749","lat":"25.0567660236851","version":3},{"id":8625,"nid":"1035800300","name":"涼州重慶路口","address":"涼州路上近重慶路二段同向(向北)","lon":"121.5135455","lat":"25.06066906","version":2},{"id":8623,"nid":"1035900000","name":"捷運大橋頭站","address":"捷運大橋頭站公車專用道(向北)","lon":"121.513583","lat":"25.062704","version":3},{"id":1441,"nid":"1036300200","name":"昌吉重慶路口","address":"重慶北路三段+昌吉街同向(向北)","lon":"121.513757562654","lat":"25.0657941207008","version":3},{"id":1001200,"nid":"1036900020","name":"民族重慶路口","address":"民族西路204號(向東)","lon":"121.514330844236","lat":"25.0685862675668","version":3},{"id":1487,"nid":"1036400420","name":"蘭州國中","address":"民族西路136號同向(向東)","lon":"121.5161869","lat":"25.06851222","version":2},{"id":5987,"nid":"1117200100","name":"社子市場","address":"延平北路六段28號(向北)","lon":"121.5090743","lat":"25.08750559","version":2},{"id":5986,"nid":"1117200600","name":"社園里","address":"延平北路六段114號(向北)","lon":"121.5079873","lat":"25.08905628","version":3},{"id":5985,"nid":"1117200360","name":"社子派出所","address":"延平北路六段192號(向西)","lon":"121.5064251","lat":"25.08959947","version":3},{"id":5983,"nid":"1117200400","name":"社子國小","address":"延平北路六段308號同向(向北)","lon":"121.50257764702363","lat":"25.08990453695691","version":4},{"id":892,"nid":"1117500500","name":"洲美橋","address":"延平北路六段458號同向(向北)","lon":"121.499221916662","lat":"25.0926589514351","version":3},{"id":622,"nid":"1117400300","name":"中窟","address":"延平北路七段34號同向(向北)","lon":"121.49649","lat":"25.09534","version":2},{"id":5980,"nid":"1117200900","name":"福安里","address":"延平北路七段75號對向(向北)","lon":"121.49544","lat":"25.09636","version":3},{"id":5979,"nid":"1117201000","name":"福安區民活動中心","address":"延平北路七段117號對向(向北)","lon":"121.49455","lat":"25.09717","version":3},{"id":565,"nid":"1117200000","name":"下竹圍","address":"延平北路七段150巷口(向北)","lon":"121.49333","lat":"25.0982","version":3},{"id":5978,"nid":"1117400500","name":"地藏禪寺","address":"延平北路七段189號對向(向北)","lon":"121.4915352","lat":"25.09974946","version":2},{"id":5977,"nid":"1117402000","name":"臨江園","address":"延平北路七段234號同向","lon":"121.48928","lat":"25.10163","version":3},{"id":5984,"nid":"1117401900","name":"福安國中","address":"延平北路八段1號對向(向北)","lon":"121.48729","lat":"25.10333","version":2},{"id":5975,"nid":"1117401600","name":"富洲里八段","address":"延平北路八段85號對向(向北)","lon":"121.48446","lat":"25.10576","version":3},{"id":5971,"nid":"1117400800","name":"威靈廟","address":"延平北路九段24號(向北)","lon":"121.4764835","lat":"25.10595729","version":2},{"id":5970,"nid":"1117401500","name":"富洲里九段","address":"延平北路九段99號對向(向北)","lon":"121.4742815","lat":"25.10622343","version":3},{"id":5969,"nid":"1117401100","name":"浮線","address":"延平北路九段146號(向北)","lon":"121.4725864","lat":"25.10666772","version":2},{"id":911,"nid":"1117400400","name":"台北海大","address":"延平北路九段247號對向(向北)","lon":"121.4706761","lat":"25.1085253","version":3},{"id":5981,"nid":"1117500100","name":"永倫里(延平)","address":"延平北路六段384號同向(向北)","lon":"121.500682","lat":"25.091148","version":7},{"id":1000066,"nid":"1036900040","name":"民族重慶路口","address":"重慶北路三段(向南)","lon":"121.5137100606","lat":"25.0688798965403","version":5},{"id":4896,"nid":"1117401420","name":"富洲里","address":"延平北路9路313號東側90公尺(向東)","lon":"121.468652","lat":"25.109126","version":6},{"id":4897,"nid":"1117401460","name":"富洲里","address":"延平北路9段313號東側10公尺對面(向西)","lon":"121.468346","lat":"25.109244","version":6},